     2.11           OBSERVATION DATA    M (MIXED)           RINEX VERSION / TYPE
teqc  2015Nov6                          20191003 12:15:01UTCPGM / RUN BY / DATE
KLG1_WDIZMIRAN                                              MARKER NAME
KLG1                                                        MARKER NUMBER
                                                            OBSERVER / AGENCY
466852              LEICA GX1220GG      5.50/3.055          REC # / TYPE / VERS
                    LEIAX1202GG                             ANT # / TYPE
  3459534.0171  1291070.7222  5183163.5417                  APPROX POSITION XYZ
        0.0000        0.0000        0.0000                  ANTENNA: DELTA H/E/N
     1     1                                                WAVELENGTH FACT L1/2
     5    L1    L2    P1    P2    C1                        # / TYPES OF OBSERV
    30.0000                                                 INTERVAL
    18                                                      LEAP SECONDS
MSXP|IAx86-PII|bcc32 5.0|MSWin95->XP|486/DX+                COMMENT
SPIDER V3,1,0,3080                      2017 09 06 23:05    COMMENT
BIT 2 OF LLI FLAGS DATA COLLECTED UNDER A/S CONDITION       COMMENT
SNR is mapped to RINEX snr flag value [2-9]                 COMMENT
L1&L2:  = 25dBHz -> 1; 26-27dBHz -> 2; 28-31dBHz -> 3       COMMENT
       32-35dBHz -> 4; 36-38dBHz -> 5; 39-41dBHz -> 6       COMMENT
       42-44dBHz -> 7; 45-48dBHz -> 8; >=49dBHz -> 9        COMMENT
Forced Modulo Decimation to 30 seconds                      COMMENT
teqc edited: all GLONASS satellites excluded                COMMENT
teqc edited: all SBAS satellites excluded                   COMMENT
teqc edited: all Galileo satellites excluded                COMMENT
  2017     9     6     0     0    0.0000000     GPS         TIME OF FIRST OBS
                                                            END OF HEADER
 17  9  6  0  0  0.0000000  0  9G05G13G15G17G18G20G24G28G30
 127738338.509 8  99536373.53644                  24307798.040    24307797.967
 106408685.405 9  82915871.37848                  20248892.129    20248893.813
 112192536.731 9  87422759.01947                  21349526.861    21349527.942
 126459587.628 8  98539933.79545                  24064457.042    24064457.095
 128664015.804 6 100257671.30344                  24483945.528    24483947.268
 119493996.526 8  93112180.18045                  22738949.714    22738951.613
 127869876.661 6  99638870.65745                  24332830.998    24332828.976
 110511611.706 9  86112948.01847                  21029653.004    21029654.960
 116414369.132 9  90712509.82347                  22152911.356    22152910.162
 17  9  6  0  0 30.0000000  0  9G05G13G15G17G18G20G24G28G30
 127844685.460 8  99619241.30645                  24328035.013    24328035.142
 106413615.346 9  82919712.89748                  20249830.275    20249831.902
 112143100.019 9  87384236.90947                  21340119.284    21340120.377
 126364384.774 8  98465749.80245                  24046340.492    24046340.386
 128609273.266 6 100215014.76744                  24473528.138    24473530.157
 119556193.026 8  93160644.97145                  22750785.532    22750787.451
 127766613.702 6  99558406.05145                  24313180.643    24313178.664
 110541072.116 9  86135904.18547                  21035259.112    21035261.143
 116496481.129 8  90776493.18647                  22168536.861    22168535.436
 17  9  6  0  1  0.0000000  0  9G05G13G15G17G18G20G24G28G30
 127951135.552 8  99702189.41945                  24348291.835    24348291.945
 106419107.399 9  82923992.42148                  20250875.394    20250876.993
 112094160.551 9  87346102.26547                  21330806.475    21330807.471
 126269374.885 8  98391716.14945                  24028260.810    24028260.736
 128554946.714 7 100172682.39844                  24463190.614    24463192.259
 119618852.221 8  93209470.30645                  22762709.246    22762711.254
 127663444.100 6  99478014.20845                  24293547.905    24293545.999
 110570998.626 9  86159223.55947                  21040954.055    21040955.927
 116578828.760 9  90840660.16147                  22184207.207    22184205.580
 17  9  6  0  1 30.0000000  0  9G05G13G15G17G18G20G24G28G30
 128057681.398 8  99785212.13845                  24368566.801    24368566.975
 106425157.573 9  82928706.84648                  20252026.727    20252028.267
 112045714.933 9  87308352.43547                  21321587.474    21321588.553
 126174556.253 8  98317831.58145                  24010217.306    24010217.178
 128501033.189 6 100130671.90244                  24452931.550    24452932.803
 119681967.285 8  93258650.84944                  22774720.110    22774721.866
 127560364.637 6  99397692.59745                  24273932.517    24273930.683
 110601385.180 9  86182901.39347                  21046736.501    21046738.320
 116661406.344 9  90905006.32747                  22199921.121    22199919.566
 17  9  6  0  2  0.0000000  0  9G05G13G15G17G18G20G24G28G30
 128164322.861 8  99868309.39445                  24388860.068    24388860.046
 106431768.840 9  82933858.48548                  20253284.848    20253286.385
 111997767.960 9  87270991.16347                  21312463.486    21312464.493
 126079934.543 8  98244100.40445                  23992211.155    23992211.271
 128447537.073 7 100088986.57143                  24442750.727    24442753.253
 119745538.151 8  93308186.57145                  22786817.514    22786819.130
 127457378.023 6  99317443.27644                  24254334.958    24254332.988
 110632233.256 9  86206938.86047                  21052606.886    21052608.513
 116744215.211 9  90969532.70947                  22215679.153    22215677.605
 17  9  6  0  2 30.0000000  0  9G05G13G15G17G18G20G24G28G30
 128271056.283 8  99951478.29045                  24409170.876    24409170.664
 106438941.003 9  82939447.18748                  20254649.659    20254651.202
 111950320.387 9  87234019.03947                  21303434.553    21303435.485
 125985511.703 8  98170524.20245                  23974242.882    23974242.976
 128394459.268 6 100047627.25044                  24432650.495    24432652.989
 119809562.170 8  93358075.40044                  22799001.059    22799002.436
 127354485.413 6  99237267.24944                  24234754.970    24234753.098
 110663540.651 9  86231334.23347                  21058564.531    21058566.172
 116827253.619 8  91034237.95747                  22231480.805    22231479.247
 17  9  6  0  3  0.0000000  0  9G05G13G15G17G18G20G24G28G30
 128377880.440 8 100034717.90045                  24429498.732    24429498.756
 106446676.094 9  82945474.54148                  20256121.509    20256123.112
 111903375.855 9  87197438.88547                  21294501.238    21294502.231
 125891292.722 8  98097106.87945                  23956313.767    23956313.700
 128341803.164 6 100006596.53244                  24422630.123    24422632.319
 119874038.130 8  93408316.39945                  22811270.477    22811271.667
 127251689.491 6  99157166.57545                  24215193.522    24215191.351
 110695307.682 9  86256087.77747                  21064609.600    21064611.290
 116910522.012 9  91099122.41647                  22247326.268    22247324.743
 17  9  6  0  3 30.0000000  0  9G05G13G15G17G18G20G24G28G30
 128484789.311 8 100118023.51244                  24449842.806    24449842.998
 106454971.111 9  82951938.19148                  20257699.975    20257701.577
 111856932.549 9  87161249.29447                  21285663.362    21285664.358
 125797276.603 8  98023847.59945                  23938423.018    23938422.974
 128289566.788 6  99965892.87344                  24412689.889    24412691.799
 119938959.419 8  93458904.40145                  22823624.897    22823625.730
 127148987.973 6  99077139.43945                  24195650.322    24195647.795
 110727529.608 9  86281195.77447                  21070741.259    21070742.860
 116994015.702 9  91164182.42247                  22263214.403    22263213.052
 17  9  6  0  4  0.0000000  0  9G05G13G15G17G18G20G24G28G30
 128591783.408 7 100201395.54445                  24470202.833    24470202.959
 106463829.486 9  82958840.83548                  20259385.687    20259387.288
 111810995.482 9  87125454.17547                  21276921.897    21276922.819
 125703469.924 8  97950751.55945                  23920572.409    23920572.151
 128237755.294 6  99925520.29444                  24402830.928    24402832.423
 120004327.501 8  93509840.53945                  22836063.763    22836064.583
 127046385.288 6  98997189.36745                  24176125.736    24176123.010
 110760208.318 9  86306659.71147                  21076959.729    21076961.394
 117077736.947 9  91229419.74047                  22279146.175    22279144.658
 17  9  6  0  4 30.0000000  0  9G05G13G15G17G18G20G24G28G30
 128698855.851 8 100284828.62345                  24490578.287    24490578.298
 106473247.784 9  82966179.77948                  20261177.977    20261179.554
 111765562.616 9  87090051.95747                  21268276.253    21268277.202
 125609871.950 8  97877818.12245                  23902761.189    23902760.876
 128186366.332 6  99885476.91443                  24393051.445    24393053.239
 120070135.633 8  93561119.59345                  22848586.494    22848587.394
 126943878.948 6  98917314.29245                  24156619.076    24156616.637
 110793338.538 9  86332475.47547                  21083264.164    21083265.871
 117161680.525 8  91294830.31747                  22295119.877    22295118.613
 17  9  6  0  5  0.0000000  0  9G05G13G15G17G18G20G24G28G30
 128806006.436 8 100368322.59145                  24510968.428    24510968.560
 106483229.215 9  82973957.52448                  20263077.405    20263078.927
 111720638.366 9  87055046.05447                  21259727.469    21259728.390
 125516488.143 8  97805051.56545                  23884990.677    23884990.279
 128135404.077 7  99845766.07943                  24383353.371    24383355.581
 120136384.368 8  93612741.96245                  22861193.219    22861193.961
 126841472.970 6  98837517.49144                  24137131.661    24137129.267
 110826921.344 9  86358643.90047                  21089654.738    21089656.425
 117245848.128 9  91360415.43647                  22311136.585    22311135.140
 17  9  6  0  5 30.0000000  0  9G05G13G15G17G18G20G24G28G30
 128913231.099 8 100451874.27844                  24531372.466    24531372.581
 106493772.061 9  82982172.74748                  20265083.608    20265085.152
 111676222.213 9  87020436.06447                  21251275.356    21251276.241
 125423319.507 8  97732452.67445                  23867261.218    23867260.901
 128084868.372 6  99806387.57344                  24373736.982    24373739.259
 120203069.185 8  93664704.10945                  22873882.677    22873883.475
 126739166.400 6  98757798.13645                  24117663.479    24117660.903
 110860953.970 9  86385162.84347                  21096130.935    21096132.594
 117330236.849 9  91426172.87046                  22327195.215    22327193.797
 17  9  6  0  6  0.0000000  0  9G05G13G15G17G18G20G24G28G30
 129020529.026 8 100535483.06944                  24551790.525    24551790.626
 106504878.967 9  82990827.49048                  20267197.070    20267198.726
 111632318.561 9  86986225.43047                  21242920.671    21242921.702
 125330371.125 8  97660025.42645                  23849573.676    23849573.275
 128034763.155 6  99767344.60145                  24364203.182    24364204.339
 120270189.771 8  93717005.87745                  22886655.105    22886656.324
 126636962.992 6  98678159.12546                  24098214.209    24098212.181
 110895436.892 9  86412032.65047                  21102692.839    21102694.482
 117414847.734 8  91492103.39747                  22343296.153    22343294.660
 17  9  6  0  6 30.0000000  0  9G05G13G15G17G18G20G24G28G30
 129127894.727 7 100619144.67445                  24572221.475    24572221.776
 106516547.400 9  82999919.79248                  20269417.519    20269419.167
 111588926.202 9  86952413.20547                  21234663.380    21234664.428
 125237643.413 8  97587770.10545                  23831927.952    23831928.022
 127985087.202 6  99728636.07144                  24354749.744    24354751.177
 120337740.922 8  93769643.12546                  22899509.651    22899510.892
 126534861.287 6  98598599.39746                  24078784.979    24078782.962
 110930365.877 9  86439250.05747                  21109339.631    21109341.241
 117499676.859 8  91558204.01846                  22359438.524    22359437.088
 17  9  6  0  7  0.0000000  0  9G05G13G15G17G18G20G24G28G30
 129235326.991 7 100702858.12445                  24592665.231    24592665.469
 106528779.229 9  83009451.09248                  20271745.175    20271746.771
 111546048.276 9  86919001.83947                  21226503.960    21226505.060
 125145140.751 8  97515690.17845                  23814325.526    23814325.457
 127935843.859 6  99690264.63243                  24345378.688    24345380.445
 120405721.713 8  93822615.14245                  22912446.233    22912447.237
 126432863.988 6  98519120.99045                  24059375.540    24059373.801
 110965741.386 9  86466815.37947                  21116071.326    21116072.959
 117584724.685 8  91624475.03347                  22375622.621    22375621.294
 17  9  6  0  7 30.0000000  0  9G05G13G15G17G18G20G24G28G30
 129342821.973 7 100786620.45644                  24613120.756    24613121.024
 106541573.777 9  83019420.88748                  20274179.931    20274181.481
 111503685.694 9  86885992.03947                  21218442.584    21218443.741
 125052864.956 8  97443786.98745                  23796765.850    23796766.112
 127887033.441 6  99652230.53243                  24336089.815    24336092.363
 120474128.191 8  93875918.87945                  22925463.374    22925464.664
 126330971.124 6  98439724.01545                  24039985.973    24039984.180
 111001560.877 9  86494726.68547                  21122887.483    21122889.169
 117669989.240 8  91690914.91947                  22391847.851    22391846.480
 17  9  6  0  8  0.0000000  0  9G05G13G15G17G18G20G24G28G30
 129450378.740 7 100870430.92545                  24633587.984    24633588.164
 106554933.002 9  83029830.68248                  20276722.102    20276723.651
 111461841.789 9  86853386.39847                  21210479.938    21210481.122
 124960820.572 8  97372064.11445                  23779250.277    23779250.678
 127838659.532 6  99614536.57843                  24326884.719    24326887.138
 120542959.690 8  93929553.79545                  22938561.462    22938562.785
 126229185.938 6  98360410.91845                  24020616.882    24020615.026
 111037824.760 9  86522984.25547                  21129788.407    21129789.957
 117755470.998 8  91757524.08746                  22408114.383    22408113.177
 17  9  6  0  8 30.0000000  0  9G05G13G15G17G18G20G24G28G30
 129557993.444 8 100954286.52944                  24654066.394    24654066.585
 106568855.784 9  83040679.61948                  20279371.447    20279373.068
 111420516.897 9  86821185.18247                  21202616.096    21202617.286
 124869009.921 8  97300523.40645                  23761779.328    23761779.876
 127790722.264 6  99577182.85044                  24317762.718    24317764.926
 120612212.420 8  93983516.93845                  22951740.102    22951741.147
 126127508.506 6  98281181.77845                  24001268.080    24001266.567
 111074530.316 9  86551585.99547                  21136773.092    21136774.804
 117841167.691 8  91824300.72146                  22424421.957    22424420.686
 17  9  6  0  9  0.0000000  0  9G05G13G15G17G18G20G24G28G30
 129665663.260 7 101038185.11344                  24674555.041    24674555.506
 106583342.766 9  83051968.19648                  20282128.263    20282129.837
 111379712.611 9  86789389.64547                  21194851.369    21194852.542
 124777436.052 8  97229167.12645                  23744353.045    23744354.079
 127743223.405 6  99540170.76443                  24308724.057    24308726.080
 120681884.030 7  94037806.50245                  22964998.161    22964999.155
 126025939.816 6  98202037.38345                  23981939.936    23981938.682
 111111676.065 9  86580530.73747                  21143841.571    21143843.512
 117927078.255 8  91891243.98746                  22440770.354    22440768.810
 17  9  6  0  9 30.0000000  0  9G05G13G15G17G18G20G24G28G30
 129773383.593 8 101122123.01345                  24695053.411    24695053.754
 106598391.701 9  83063694.65148                  20284991.983    20284993.501
 111339428.490 9  86757999.42447                  21187185.603    21187186.747
 124686099.347 8  97157995.74145                  23726972.289    23726973.175
 127696162.385 6  99503499.80943                  24299768.635    24299770.684
 120751969.510 8  94092418.53445                  22978335.046    22978335.990
 125924479.390 6  98122977.33846                  23962632.864    23962631.369
 111149258.456 9  86609815.71547                  21150993.338    21150995.239
 118013199.399 8  91958351.36146                  22457158.615    22457157.279
 17  9  6  0 10  0.0000000  0  9G05G13G15G17G18G20G24G28G30
 129881155.484 7 101206101.13944                  24715561.674    24715562.170
 106614006.896 9  83075862.34948                  20287963.444    20287964.950
 111299670.268 9  86727018.99647                  21179619.827    21179621.003
 124595006.959 8  97087014.69145                  23709638.022    23709638.971
 127649544.754 6  99467174.40045                  24290897.882    24290899.406
 120822470.404 7  94147354.28645                  22991751.055    22991751.953
 125823132.195 6  98044005.50145                  23943347.356    23943345.758
 111187280.258 9  86639443.09647                  21158228.586    21158230.589
 118099534.254 8  92025625.26147                  22473587.542    22473586.202
 17  9  6  0 10 30.0000000  0  9G05G13G15G17G18G20G24G28G30
 129988975.669 7 101290116.84145                  24736079.441    24736079.615
 106630187.318 9  83088470.48748                  20291042.419    20291043.952
 111260438.587 9  86696448.84847                  21172154.277    21172155.492
 124504160.557 8  97016225.33845                  23692350.440    23692351.315
 127603370.854 6  99431194.75643                  24282111.629    24282112.650
 120893383.075 7  94202610.88245                  23005245.211    23005246.221
 125721898.738 6  97965122.34845                  23924083.116    23924081.333
 111225738.953 9  86669410.92147                  21165546.921    21165549.088
 118186080.530 8  92093063.89746                  22490056.517    22490055.464
 17  9  6  0 11  0.0000000  0  9G05G13G15G17G18G20G24G28G30
 130096835.523 7 101374163.45844                  24756604.430    24756604.556
 106646927.987 9  83101515.18248                  20294228.021    20294229.578
 111221729.670 9  86666286.06447                  21164788.202    21164789.442
 124413558.043 8  96945626.00745                  23675109.362    23675110.170
 127557636.892 6  99395557.90143                  24273407.455    24273409.535
 120964699.676 7  94258182.24645                  23018816.229    23018817.450
 125620775.055 6  97886324.70246                  23904840.003    23904838.177
 111264627.884 9  86699713.98747                  21172947.231    21172949.465
 118272831.887 8  92160662.35046                  22506564.826    22506563.853
 17  9  6  0 11 30.0000000  0  9G05G13G15G17G18G20G24G28G30
 130204739.183 7 101458244.24044                  24777137.625    24777138.118
 106664235.495 9  83115001.56648                  20297521.564    20297523.081
 111183551.504 9  86636536.84147                  21157523.176    21157524.408
 124323208.698 8  96875223.95645                  23657916.256    23657917.161
 127512350.645 6  99360269.86444                  24264789.802    24264791.967
 121036424.109 7  94314071.41645                  23032464.813    23032466.049
 125519768.732 6  97807618.52745                  23885619.128    23885617.313
 111303951.693 9  86730355.91947                  21180430.419    21180432.573
 118359793.561 8  92228424.65146                  22523113.034    22523112.133
 17  9  6  0 12  0.0000000  0  9G05G13G15G17G18G20G24G28G30
 130312679.086 8 101542353.24744                  24797678.003    24797678.518
 106682104.784 9  83128925.69848                  20300921.979    20300923.464
 111145900.789 9  86607198.63247                  21150358.555    21150359.721
 124233110.622 8  96805017.71046                  23640771.006    23640771.990
 127467509.138 6  99325328.43044                  24256257.273    24256259.263
 121108548.418 7  94370272.15445                  23046189.447    23046190.831
 125418875.613 6  97729000.52945                  23866419.451    23866417.836
 111343703.749 9  86761331.54547                  21187995.044    21187997.132
 118446959.596 8  92296346.24846                  22539700.166    22539699.362
 17  9  6  0 12 30.0000000  0  9G05G13G15G17G18G20G24G28G30
 130420653.937 7 101626489.49044                  24818224.925    24818225.437
 106700537.731 9  83143289.03048                  20304429.659    20304431.119
 111108780.119 9  86578273.43347                  21143294.710    21143295.934
 124143267.679 8  96735010.25845                  23623674.288    23623675.339
 127423114.622 7  99290735.33144                  24247809.384    24247811.482
 121181071.396 7  94426783.56045                  23059990.179    23059991.488
 125318099.328 6  97650473.58945                  23847242.485    23847240.699
 111383884.252 9  86792641.03447                  21195641.194    21195643.257
 118534330.401 8  92364427.37246                  22556326.333    22556325.639
 17  9  6  0 13  0.0000000  0  9G05G13G15G17G18G20G24G28G30
 130528664.026 7 101710653.16844                  24838778.891    24838779.049
 106719537.383 9  83158093.96748                  20308045.115    20308046.621
 111072194.591 9  86549765.23747                  21136332.710    21136333.981
 124053686.399 8  96665206.72545                  23606627.743    23606628.469
 127379172.074 7  99256494.40044                  24239447.750    24239449.564
 121253994.008 7  94483606.34845                  23073867.044    23073868.099
 125217443.976 6  97572040.86944                  23828087.979    23828086.331
 111424495.185 9  86824285.91647                  21203369.175    21203371.273
 118621908.096 8  92432669.71846                  22572991.781    22572991.073
 17  9  6  0 13 30.0000000  0  8G13G15G17G18G20G24G28G30
 106739099.592 9  83173337.25948                  20311767.660    20311769.197
 111036141.352 9  86521671.80147                  21129471.999    21129473.320
 123964365.960 8  96595606.42245                  23589630.554    23589631.337
 127335678.902 7  99222603.62744                  24231171.476    24231173.142
 121327309.302 7  94540735.13045                  23087818.736    23087819.661
 125116906.388 6  97493699.89245                  23808956.640    23808954.968
 111465530.759 9  86856261.68747                  21211178.099    21211180.101
 118709687.198 8  92501068.99346                  22589695.742    22589694.934
 17  9  6  0 14  0.0000000  0  8G13G15G17G18G20G24G28G30
 106759225.303 9  83189019.62748                  20315597.531    20315598.987
 111000622.843 9  86493995.05747                  21122713.162    21122714.360
 123875309.739 8  96526212.00045                  23572683.682    23572684.430
 127292637.285 7  99189064.70243                  24222981.004    24222982.815
 121401014.752 7  94598167.92045                  23101844.585    23101845.383
 125016489.509 6  97415452.99144                  23789847.917    23789846.372
 111506989.902 9  86888567.52147                  21219067.407    21219069.448
 118797667.547 8  92569625.10046                  22606437.989    22606437.157
 17  9  6  0 14 30.0000000  0  8G13G15G17G18G20G24G28G30
 106779913.998 9  83205140.68948                  20319534.504    20319535.950
 110965640.335 9  86466735.95447                  21116056.226    21116057.410
 123786520.404 8  96457025.52845                  23555787.608    23555788.269
 127250048.307 6  99155878.44344                  24214876.756    24214878.545
 121475107.931 7  94655902.85545                  23115943.687    23115944.834
 124916193.700 6  97337300.43245                  23770762.264    23770760.798
 111548871.589 9  86921202.60247                  21227037.113    21227039.226
 118885847.786 8  92638336.94046                  22623218.076    22623217.239
 17  9  6  0 15  0.0000000  0  8G13G15G17G18G20G24G28G30
 106801169.126 9  83221703.13548                  20323579.231    20323580.655
 110931198.592 9  86439898.23747                  21109502.204    21109503.341
 123698003.624 8  96388051.43846                  23538943.293    23538944.038
 127207916.815 6  99123048.73744                  24206859.346    24206860.802
 121549589.188 7  94713940.18744                  23130117.294    23130118.307
 124816023.244 6  97259245.58046                  23751700.281    23751698.785
 111591176.621 9  86954167.56747                  21235087.601    21235089.588
 118974230.174 8  92707206.32046                  22640036.682    22640035.771
 17  9  6  0 15 30.0000000  0  8G13G15G17G18G20G24G28G30
 106822986.190 9  83238703.45648                  20327730.898    20327732.298
 110897294.525 9  86413479.48447                  21103050.406    21103051.582
 123609758.639 8  96319289.16246                  23522151.294    23522151.564
 127166239.459 7  99090572.86043                  24198928.222    24198930.019
 121624451.770 8  94772274.64344                  23144363.011    23144364.123
 124715975.679 6  97181286.45845                  23732661.951    23732660.527
 111633899.784 9  86987458.34047                  21243217.486    21243219.453
 119062809.484 8  92776229.16946                  22656892.981    22656891.948
 17  9  6  0 16  0.0000000  0  8G13G15G17G18G20G24G28G30
 106845366.315 9  83256142.51748                  20331989.633    20331991.094
 110863930.495 9  86387481.53447                  21096701.456    21096702.612
 123521789.330 8  96250741.67745                  23505411.107    23505411.567
 127125019.259 6  99058453.22744                  24191084.272    24191086.314
 121699693.656 7  94830904.67545                  23158680.614    23158682.225
 124616052.737 6  97103424.45445                  23713647.155    23713645.824
 111677040.339 9  87021074.36047                  21251426.877    21251428.667
 119151585.149 8  92845404.99046                  22673786.308    22673785.384
 17  9  6  0 16 30.0000000  0  8G13G15G17G18G20G24G28G30
 106868308.682 9  83274019.70348                  20336355.425    20336356.917
 110831107.089 9  86361904.85947                  21090455.455    21090456.543
 123434097.251 8  96182410.22946                  23488723.709    23488724.248
 127084255.851 7  99026689.54044                  24183327.324    24183329.135
 121775311.205 7  94889827.38245                  23173070.743    23173071.826
 124516255.660 6  97025660.55345                  23694656.607    23694654.994
 111720595.760 9  87055013.65647                  21259715.375    21259716.976
 119240555.406 8  92914732.45046                  22690716.782    22690715.873
 17  9  6  0 17  0.0000000  0  8G13G15G17G18G20G24G28G30
 106891816.734 9  83292337.66348                  20340828.827    20340830.392
 110798829.666 9  86336753.61647                  21084313.234    21084314.366
 123346688.985 8  96114299.91145                  23472090.329    23472090.906
 127043954.229 7  98995285.63544                  24175657.956    24175659.967
 121851305.592 7  94949043.78845                  23187531.895    23187533.131
 124416588.752 6  96947998.05845                  23675690.854    23675689.000
 111764568.309 9  87089277.98247                  21268083.035    21268084.537
 119329722.982 8  92984213.67646                  22707684.807    22707683.809
 17  9  6  0 17 30.0000000  0  9G11G13G15G17G18G20G24G28G30
 129145523.44516 100632873.02353                  24575577.131    24575576.797
 106915887.665 9  83311094.23248                  20345409.434    20345410.914
 110767096.468 9  86312026.45347                  21078274.601    21078275.709
 123259564.708 8  96046410.91046                  23455511.012    23455511.767
 127004112.962 7  98964240.47144                  24168076.318    24168078.379
 121927670.875 7  95008549.17945                  23202063.605    23202065.008
 124317050.693 6  96870435.94046                  23656748.966    23656747.466
 111808952.926 9  87123863.40647                  21276529.172    21276530.577
 119419083.621 8  93053845.31546                  22724689.717    22724688.567
 17  9  6  0 18  0.0000000  0  9G11G13G15G17G18G20G24G28G30
 129105354.779 6 100601572.78943                  24567932.134    24567934.042
 106940525.354 9  83330292.44248                  20350097.772    20350099.293
 110735912.814 9  86287727.51347                  21072340.521    21072341.580
 123172731.233 8  95978748.50045                  23438987.267    23438987.811
 126964737.388 7  98933558.19044                  24160583.231    24160585.319
 122004408.506 7  95068344.74045                  23216666.658    23216668.098
 124217646.626 7  96792978.25146                  23637832.930    23637831.495
 111853752.527 9  87158772.17647                  21285054.189    21285055.640
 119508640.433 8  93123629.84546                  22741731.797    22741730.745
 17  9  6  0 18 30.0000000  0  9G11G13G15G17G18G20G24G28G30
 129065709.057 6 100570680.05643                  24560387.432    24560389.397
 106965722.308 9  83349926.42948                  20354892.569    20354894.126
 110705273.209 9  86263852.48247                  21066509.971    21066511.069
 123086184.460 8  95911309.50045                  23422517.997    23422518.425
 126925821.915 6  98903234.47344                  24153178.053    24153179.844
 122081508.491 7  95128422.57445                  23231338.264    23231339.137
 124118371.007 7  96715620.63745                  23618941.579    23618939.991
 111898958.354 9  87193997.50547                  21293656.506    21293657.993
 119598385.229 8  93193560.82546                  22758809.786    22758808.416
 17  9  6  0 19  0.0000000  0  9G11G13G15G17G18G20G24G28G30
 129026589.430 6 100540197.20944                  24552943.178    24552945.375
 106991479.154 9  83369996.69748                  20359793.835    20359795.484
 110675179.749 9  86240403.03247                  21060783.453    21060784.450
 122999927.829 8  95844096.58246                  23406104.054    23406104.250
 126887368.520 7  98873270.75943                  24145860.020    24145862.127
 122158968.923 7  95188781.37345                  23246078.277    23246079.623
 124019225.946 6  96638364.77146                  23600075.029    23600073.212
 111944569.850 9  87229538.93347                  21302336.116    21302337.578
 119688317.844 8  93263638.14646                  22775923.445    22775921.982
 17  9  6  0 19 30.0000000  0  9G11G13G15G17G18G20G24G28G30
 128988001.472 6 100510128.71042                  24545599.854    24545602.694
 107017799.733 9  83390506.24648                  20364802.461    20364804.106
 110645637.333 9  86217382.97847                  21055161.797    21055162.679
 122913968.496 8  95777115.29345                  23389746.363    23389746.733
 126849382.618 6  98843671.37344                  24138632.250    24138633.585
 122236791.227 7  95249422.08344                  23260887.389    23260888.525
 123920216.645 7  96561214.69545                  23581234.284    23581232.333
 111990589.004 9  87265398.01847                  21311093.187    21311094.750
 119778441.059 8  93333864.01646                  22793073.197    22793071.865
 17  9  6  0 20  0.0000000  0  9G11G13G15G17G18G20G24G28G30
 128949942.379 6 100480472.28743                  24538358.368    24538360.569
 107044678.710 9  83411450.90648                  20369917.337    20369919.000
 110616641.707 9  86194788.98147                  21049644.120    21049644.930
 122828304.112 8  95710363.86946                  23373444.946    23373445.289
 126811859.892 6  98814432.87444                  24131492.108    24131493.081
 122314966.999 7  95310338.24446                  23275763.814    23275764.421
 123821339.139 7  96484167.29646                  23562418.355    23562416.706
 112037009.434 9  87301569.78247                  21319926.777    21319928.324
 119868748.551 8  93404233.47446                  22810258.222    22810256.750
 17  9  6  0 20 30.0000000  0  9G11G13G15G17G18G20G24G28G30
 128912421.228 6 100451234.94843                  24531217.823    24531220.139
 107072123.088 9  83432836.13548                  20375139.806    20375141.491
 110588202.843 9  86172628.82947                  21044232.269    21044233.134
 122742944.754 8  95643850.11546                  23357201.554    23357202.063
 126774808.980 6  98785562.01044                  24124441.289    24124442.592
 122393500.751 7  95371533.35145                  23290708.513    23290709.017
 123722602.093 7  96407229.39346                  23543629.157    23543627.617
 112083836.615 9  87338058.49747                  21328837.725    21328839.169
 119959246.654 8  93474751.46046                  22827479.220    22827477.973
 17  9  6  0 21  0.0000000  0  9G11G13G15G17G18G20G24G28G30
 128875433.807 6 100422413.61844                  24524179.467    24524181.363
 107100126.792 9  83454657.20848                  20380468.712    20380470.401
 110560315.363 9  86150898.32547                  21038925.466    21038926.276
 122657886.904 8  95577571.29045                  23341015.741    23341016.276
 126738224.948 6  98757054.96144                  24117479.676    24117480.805
 122472383.702 7  95433000.53645                  23305719.175    23305719.622
 123624001.009 6  96330397.40746                  23524865.659    23524864.253
 112131062.743 9  87374858.07547                  21337824.504    21337825.972
 120049928.237 8  93545412.38346                  22844735.606    22844734.074
 17  9  6  0 21 30.0000000  0 10G11G13G15G17G18G19G20G24G28G30
 128838985.848 6 100394012.62845                  24517243.876    24517245.547
 107128692.670 9  83476916.33648                  20385904.565    20385906.241
 110532983.775 9  86129600.98247                  21033724.445    21033725.206
 122573136.668 8  95511532.17846                  23324888.040    23324888.938
 126702112.447 6  98728915.38944                  24110607.713    24110608.949
 129957565.04016 101265633.06555                  24730101.520    24730102.597
 122551616.504 7  95494740.34845                  23320796.698    23320797.242
 123525540.349 7  96253674.80345                  23506129.413    23506127.949
 112178689.739 9  87411970.02147                  21346887.635    21346889.159
 120140795.610 8  93616218.11746                  22862027.014    22862025.662
 17  9  6  0 22  0.0000000  0 10G11G13G15G17G18G19G20G24G28G30
 128803072.913 6 100366028.50544                  24510409.562    24510411.471
 107157814.351 9  83499608.55948                  20391446.138    20391447.871
 110506203.081 9  86108732.91047                  21028628.249    21028629.015
 122488691.585 8  95445730.85446                  23308818.685    23308819.602
 126666466.882 7  98701139.58844                  24103824.609    24103826.276
 129840007.845 7 101174030.09545                  24707731.070    24707733.367
 122631190.158 7  95556745.78544                  23335939.441    23335940.027
 123427215.494 6  96177058.08846                  23487418.966    23487417.226
 112226709.656 9  87449388.14347                  21356025.416    21356027.105
 120231841.430 8  93687162.88546                  22879352.450    22879351.171
 17  9  6  0 22 30.0000000  0 10G11G13G15G17G18G19G20G24G28G30
 128767705.253 6 100338469.32544                  24503679.108    24503681.331
 107187499.557 9  83522739.88747                  20397094.992    20397096.790
 110479982.634 9  86088301.39147                  21023638.549    21023639.454
 122404562.191 8  95380175.50245                  23292809.276    23292810.198
 126631297.242 7  98673734.66944                  24097131.567    24097134.102
 129722510.778 7 101082473.95845                  24685371.867    24685374.275
 122711109.831 7  95619020.78544                  23351147.151    23351147.753
 123329035.397 7  96100554.14945                  23468735.984    23468734.080
 112275129.429 9  87487117.83647                  21365239.408    21365241.141
 120323072.736 8  93758252.18246                  22896713.191    22896711.905
 17  9  6  0 23  0.0000000  0 10G11G13G15G17G18G19G20G24G28G30
 128732879.788 6 100311332.55944                  24497052.032    24497054.259
 107217743.687 9  83546306.73948                  20402850.265    20402852.098
 110454319.026 9  86068303.76847                  21018754.955    21018755.856
 122320746.472 8  95314864.59946                  23276859.626    23276860.353
 126596599.570 7  98646697.54944                  24090529.185    24090531.230
 129605071.815 7 100990963.12344                  24663023.910    24663026.164
 122791368.044 7  95681559.69345                  23366419.669    23366421.079
 123230997.272 7  96024160.82945                  23450079.856    23450077.866
 112323942.311 9  87525153.84847                  21374528.351    21374529.983
 120414483.943 8  93829481.67346                  22914108.251    22914106.903
 17  9  6  0 23 30.0000000  0 10G11G13G15G17G18G19G20G24G28G30
 128698598.675 6 100284620.00944                  24490528.372    24490530.905
 107248546.911 9  83570309.25348                  20408711.970    20408713.733
 110429213.410 9  86048740.95347                  21013977.562    21013978.404
 122237247.424 8  95249800.43545                  23260970.361    23260971.072
 126562375.409 7  98620029.37144                  24084016.299    24084019.005
 129487694.538 6 100899500.32445                  24640687.898    24640689.981
 122871962.405 6  95744360.40944                  23381756.795    23381757.325
 123133102.392 6  95947879.14045                  23431451.340    23431449.108
 112373147.043 9  87563495.19647                  21383891.638    21383893.368
 120506074.076 8  93900850.57446                  22931537.243    22931536.098
 17  9  6  0 24  0.0000000  0 10G11G13G15G17G18G19G20G24G28G30
 128664864.743 6 100258333.85544                  24484109.024    24484111.682
 107279908.923 9  83594747.19348                  20414679.949    20414681.738
 110404668.477 9  86029615.02747                  21009306.884    21009307.640
 122154068.996 8  95184986.08945                  23245141.883    23245142.756
 126528627.349 7  98593732.20044                  24077594.147    24077596.957
 129370383.019 6 100808088.75545                  24618364.328    24618366.067
 122952890.930 7  95807421.59044                  23397156.438    23397157.987
 123035353.391 7  95871711.13046                  23412849.968    23412848.091
 112422743.085 8  87602141.46547                  21393329.315    21393331.110
 120597843.353 8  93972359.09646                  22949000.240    22948999.431
 17  9  6  0 24 30.0000000  0 10G11G13G15G17G18G19G20G24G28G30
 128631679.959 6 100232475.58143                  24477794.147    24477797.030
 107311830.098 9  83619620.83948                  20420754.363    20420756.141
 110380685.416 9  86010926.92747                  21004743.075    21004743.792
 122071213.977 8  95120423.77946                  23229375.184    23229375.886
 126495356.568 7  98567806.89744                  24071263.099    24071265.511
 129253141.132 7 100716731.49444                  24596054.173    24596055.595
 123034151.183 7  95870741.25945                  23412619.893    23412621.317
 122937751.544 7  95795657.76846                  23394277.105    23394275.149
 112472728.752 9  87641091.33947                  21402841.340    21402843.090
 120689790.857 8  94044006.47446                  22966497.399    22966496.429
 17  9  6  0 25  0.0000000  0 10G11G13G15G17G18G19G20G24G28G30
 128599043.615 6 100207044.66643                  24471583.780    24471586.486
 107344308.178 9  83644928.44448                  20426934.662    20426936.526
 110357262.901 9  85992675.62047                  21000285.835    21000286.665
 121988683.125 8  95056114.07245                  23213670.043    23213670.627
 126462561.142 7  98542252.02744                  24065022.468    24065024.666
 129135969.626 7 100625429.03745                  24573757.181    24573758.914
 123115737.598 7  95934315.04445                  23428145.871    23428146.547
 122840296.085 7  95719718.47845                  23375731.657    23375730.105
 112523100.075 9  87680341.72247                  21412426.715    21412428.440
 120781913.012 8  94115789.93146                  22984027.652    22984026.663
 17  9  6  0 25 30.0000000  0 10G11G13G15G17G18G19G20G24G28G30
 128566959.523 6 100182044.06344                  24465478.644    24465481.235
 107377343.601 9  83670670.33248                  20433221.064    20433222.970
 110334403.790 9  85974863.31747                  20995935.805    20995936.715
 121906480.977 8  94992060.47946                  23198027.296    23198028.054
 126430244.468 7  98517070.22143                  24058872.814    24058875.258
 129018873.925 7 100534185.67545                  24551474.459    24551476.182
 123197649.196 7  95998142.26544                  23443732.886    23443734.192
 122742989.763 7  95643895.39146                  23357214.893    23357213.297
 112573857.417 9  87719892.89847                  21422085.616    21422087.241
 120874210.366 8  94187709.92246                  23001591.294    23001590.236
 17  9  6  0 26  0.0000000  0 10G11G13G15G17G18G19G20G24G28G30
 128535429.433 6 100157475.12544                  24459478.796    24459481.401
 107410936.588 9  83696846.69348                  20439613.575    20439615.509
 110312109.047 9  85957490.79147                  20991693.241    20991694.238
 121824610.243 8  94928265.11445                  23182447.915    23182448.613
 126398407.600 7  98492262.27543                  24052814.269    24052816.927
 128901856.307 7 100443003.15745                  24529206.505    24529208.625
 123279882.922 7  96062220.45244                  23459381.159    23459382.476
 122645833.844 7  95568189.51546                  23338726.729    23338725.105
 112624998.630 9  87759743.19047                  21431817.517    21431819.108
 120966681.915 8  94259765.64746                  23019187.855    23019186.980
 17  9  6  0 26 30.0000000  0 10G11G13G15G17G18G19G20G24G28G30
 128504453.636 6 100133338.17444                  24453583.688    24453586.963
 107445085.436 9  83723456.17848                  20446111.937    20446113.842
 110290378.697 9  85940558.04347                  20987558.152    20987559.131
 121743072.215 8  94864729.03445                  23166931.633    23166932.240
 126367050.051 7  98467827.83044                  24046847.380    24046849.629
 128784919.231 7 100351883.37345                  24506954.062    24506956.174
 123362434.755 7  96126546.52245                  23475090.677    23475091.675
 122548829.330 8  95492601.60446                  23320267.473    23320265.695
 112676520.764 9  87799890.30647                  21441621.952    21441623.414
 121059325.583 8  94331955.48645                  23036817.496    23036816.591
 17  9  6  0 27  0.0000000  0 10G11G13G15G17G18G19G20G24G28G30
 128474036.177 6 100109636.28344                  24447795.345    24447798.457
 107479791.391 9  83750499.79348                  20452716.302    20452718.178
 110269215.967 9  85924067.60847                  20983531.004    20983532.028
 121661871.826 8  94801456.01346                  23151479.700    23151480.320
 126336174.822 7  98443769.22444                  24040971.763    24040974.108
 128668068.055 7 100260830.54545                  24484718.360    24484719.956
 123445304.101 7  96191119.99544                  23490860.240    23490861.342
 122451978.872 8  95417133.72846                  23301837.478    23301835.808
 112728424.931 9  87840335.11447                  21451498.980    21451500.365
 121152142.442 8  94404280.26646                  23054480.205    23054478.921
 17  9  6  0 27 30.0000000  0 10G11G13G15G17G18G19G20G24G28G30
 128444175.770 6 100086368.41344                  24442113.727    24442116.181
 107515051.089 9  83777974.88048                  20459426.052    20459427.917
 110248618.677 9  85908017.76847                  20979611.431    20979612.476
 121581008.868 8  94738445.94645                  23136092.136    23136092.682
 126305780.009 7  98420084.95944                  24035187.564    24035190.018
 128551303.090 7 100169844.88345                  24462498.358    24462500.328
 123528484.834 7  96255936.14044                  23506689.073    23506690.050
 122355281.347 8  95341785.03246                  23283436.381    23283434.910
 112780706.133 9  87881073.72647                  21461447.750    21461449.207
 121245128.304 8  94476736.78046                  23072174.796    23072173.584
 17  9  6  0 28  0.0000000  0 10G11G13G15G17G18G19G20G24G28G30
 128414875.427 6 100063536.98644                  24436537.914    24436540.446
 107550865.902 9  83805882.52748                  20466241.453    20466243.231
 110228589.691 9  85892410.76248                  20975800.026    20975801.075
 121500488.136 8  94675702.54946                  23120769.557    23120770.263
 126275868.543 7  98396777.32444                  24029495.839    24029498.121
 128434629.414 7 100078930.35945                  24440296.263    24440298.119
 123611975.731 7  96320993.96644                  23522577.049    23522578.029
 122258739.365 8  95266557.56046                  23265065.125    23265063.535
 112833364.144 9  87922105.95047                  21471468.269    21471469.675
 121338283.785 8  94549325.43446                  23089901.885    23089900.465
 17  9  6  0 28 30.0000000  0 10G11G13G15G17G18G19G20G24G28G30
 128386136.570 6 100041143.01542                  24431068.467    24431071.462
 107587234.995 9  83834222.08348                  20473162.240    20473164.069
 110209129.483 9  85877246.96247                  20972096.947    20972097.944
 121420311.625 8  94613227.39146                  23105512.356    23105513.156
 126246440.762 7  98373846.60344                  24023896.479    24023898.046
 128318049.688 7  99988089.08045                  24418111.933    24418113.431
 123695773.830 7  96386291.13844                  23538523.293    23538524.152
 122162354.280 8  95191452.31946                  23246723.498    23246721.979
 112886397.075 9  87963430.32147                  21481560.125    21481561.477
 121431607.543 8  94622045.23345                  23107660.482    23107659.552
 17  9  6  0 29  0.0000000  0 10G11G13G15G17G18G19G20G24G28G30
 128357959.953 6 100019187.28044                  24425706.813    24425709.470
 107624156.957 9  83862992.44148                  20480188.262    20480190.020
 110190238.508 9  85862526.71348                  20968502.120    20968503.182
 121340481.546 8  94551022.15846                  23090321.332    23090322.009
 126217497.006 7  98351293.03444                  24018388.797    24018390.208
 128201566.702 7  99897323.15145                  24395945.783    24395947.402
 123779875.199 7  96451824.66744                  23554526.754    23554528.218
 122066126.605 8  95116469.73346                  23228411.878    23228410.390
 112939802.479 9  88005044.91847                  21491722.796    21491724.253
 121525097.766 8  94694894.72446                  23125451.117    23125450.103
 17  9  6  0 29 30.0000000  0 10G11G13G15G17G18G19G20G24G28G30
 128330347.072 6  99997670.73443                  24420452.413    24420454.693
 107661630.467 9  83892192.58048                  20487319.235    20487320.956
 110171917.346 9  85848250.47848                  20965015.740    20965016.829
 121260999.904 9  94489088.44546                  23075196.357    23075197.061
 126189037.844 7  98329117.06044                  24012972.900    24012974.776
 128085183.129 7  99806634.67745                  24373798.777    24373800.470
 123864276.682 7  96517592.02544                  23570588.502    23570589.286
 121970057.163 8  95041610.46246                  23210130.311    23210128.948
 112993578.127 9  88046948.03647                  21501955.935    21501957.424
 121618753.009 8  94767872.80546                  23143273.049    23143272.103
 17  9  6  0 30  0.0000000  0 10G11G13G15G17G18G19G20G24G28G30
 128303302.932 6  99976597.35244                  24415305.994    24415307.942
 107699658.899 9  83921825.12348                  20494555.820    20494557.466
 110154170.216 9  85834421.54248                  20961638.619    20961639.656
 121181873.094 9  94427431.22746                  23060139.203    23060139.812
 126161067.196 7  98307321.75044                  24007650.522    24007651.931
 127968905.820 7  99716029.03045                  24351672.021    24351673.396
 123948978.748 7  96583593.62344                  23586706.468    23586707.446
 121874150.616 8  94966878.08646                  23191879.704    23191878.592
 113047725.790 9  88089141.01547                  21512259.838    21512261.406
 121712575.574 8  94840981.27746                  23161127.060    23161126.062
 17  9  6  0 30 30.0000000  0 10G11G13G15G17G18G19G20G24G28G30
 128276823.313 6  99955963.89345                  24410266.726    24410269.157
 107738236.054 9  83951885.23548                  20501896.920    20501898.467
 110136992.584 9  85821036.38147                  20958369.841    20958370.885
 121103097.982 8  94366048.04446                  23045148.871    23045149.461
 126133580.452 6  98285903.49643                  24002419.607    24002421.170
 127852732.602 7  99625504.44645                  24329564.589    24329566.391
 124033972.613 7  96649822.60444                  23602880.201    23602881.598
 121778403.263 8  94892269.80346                  23173659.706    23173658.376
 113102238.296 9  88131618.30947                  21522633.204    21522634.815
 121806558.856 8  94914214.97446                  23179011.889    23179010.528
 17  9  6  0 31  0.0000000  0 10G11G13G15G17G18G19G20G24G28G30
 128250915.123 7  99935775.68543                  24405336.926    24405339.100
 107777366.465 9  83982376.47348                  20509343.146    20509344.689
 110120390.558 9  85808099.72648                  20955210.570    20955211.660
 121024683.083 9  94304945.56046                  23030226.830    23030227.340
 126106584.299 7  98264867.55644                  23997282.454    23997283.711
 127736671.942 7  99535067.59445                  24307479.055    24307480.734
 124119261.440 7  96716281.37844                  23619110.379    23619111.034
 121682821.508 8  94817790.54246                  23155471.148    23155469.647
 113157119.351 9  88174382.76947                  21533076.791    21533078.273
 121900707.256 8  94987577.31845                  23196927.394    23196926.254
 17  9  6  0 31 30.0000000  0 10G11G13G15G17G18G19G20G24G28G30
 128225575.851 6  99916030.78043                  24400514.553    24400517.500
 107817045.086 9  84013294.87248                  20516893.781    20516895.244
 110104361.108 9  85795609.23647                  20952160.257    20952161.393
 120946626.927 9  94244122.61246                  23015373.428    23015373.765
 126080075.165 7  98244211.09744                  23992237.722    23992239.161
 127620723.147 7  99444717.90345                  24285415.043    24285416.466
 124204837.618 7  96782964.08744                  23635395.070    23635395.866
 121587402.934 8  94743438.41246                  23137313.247    23137312.192
 113212362.933 9  88217429.72547                  21543589.328    21543590.789
 121995015.631 8  95061064.32546                  23214873.497    23214872.606
 17  9  6  0 32  0.0000000  0 10G11G13G15G17G18G19G20G24G28G30
 128200804.830 6  99896728.72844                  24395800.634    24395803.999
 107857269.303 9  84044638.41148                  20524548.208    20524549.634
 110088902.908 9  85783563.88148                  20949218.658    20949219.784
 120868929.826 9  94183579.44046                  23000587.709    23000588.564
 126054051.727 7  98223933.07744                  23987285.684    23987287.285
 127504887.321 7  99354456.22945                  24263372.243    24263373.695
 124290696.258 7  96849866.94244                  23651733.277    23651734.537
 121492146.295 8  94669212.50046                  23119186.605    23119185.456
 113267965.356 9  88260756.28747                  21554170.132    21554171.560
 122089480.794 8  95134673.50746                  23232849.901    23232849.002
 17  9  6  0 32 30.0000000  0 10G11G13G15G17G18G19G20G24G28G30
 128176609.551 7  99877875.24144                  24391196.428    24391200.213
 107898045.383 9  84076411.97848                  20532307.676    20532309.034
 110074022.875 9  85771969.05148                  20946387.044    20946388.160
 120791600.540 8  94123322.88046                  22985872.694    22985873.290
 126028521.622 7  98204039.49644                  23982427.498    23982429.151
 127389173.808 7  99264289.89045                  24241353.007    24241353.907
 124376840.654 7  96916992.37245                  23668126.291    23668126.604
 121397059.868 8  94595119.19446                  23101092.477    23101091.146
 113323930.890 9  88304365.80447                  21564819.991    21564821.477
 122184107.898 8  95208408.89645                  23250856.836    23250856.049
 17  9  6  0 33  0.0000000  0 10G11G13G15G17G18G19G20G24G28G30
 128152986.463 7  99859467.61244                  24386701.776    24386705.186
 107939366.902 9  84108610.55948                  20540170.960    20540172.216
 110059716.899 9  85760821.53848                  20943664.738    20943665.823
 120714636.506 9  94063350.92846                  22971226.594    22971227.379
 126003479.750 7  98184526.33644                  23977662.102    23977664.239
 127273580.987 7  99174217.59445                  24219356.425    24219357.301
 124463262.399 7  96984333.98345                  23684572.036    23684572.668
 121302139.185 8  94521155.06446                  23083029.574    23083028.246
 113380252.668 9  88348252.90547                  21575537.570    21575539.149
 122278890.536 8  95282265.44746                  23268893.459    23268892.638
 17  9  6  0 33 30.0000000  0 10G11G13G15G17G18G19G20G24G28G30
 128129941.349 6  99841510.37043                  24382316.167    24382319.674
 107981237.444 9  84141236.95547                  20548138.598    20548139.921
 110045990.064 9  85750125.29047                  20941052.621    20941053.687
 120638045.218 9  94003669.43446                  22956651.817    22956652.535
 125978931.095 7  98165397.53443                  23972990.706    23972992.964
 127158116.769 7  99084245.50045                  24197384.252    24197385.227
 124549963.361 6  97051893.13345                  23701070.320    23701070.873
 121207390.465 8  94447324.93546                  23064999.609    23064998.081
 113436933.600 9  88392419.87447                  21586323.694    21586325.136
 122373832.362 8  95356246.04746                  23286960.361    23286959.562
 17  9  6  0 34  0.0000000  0 10G11G13G15G17G18G19G20G24G28G30
 128107475.691 6  99824004.67944                  24378041.190    24378043.543
 108023657.165 9  84174291.26848                  20556210.860    20556212.090
 110032843.320 9  85739881.07648                  20938550.833    20938551.921
 120561829.154 8  93944280.33146                  22942148.461    22942149.065
 125954877.119 7  98146654.17844                  23968412.639    23968415.585
 127042784.463 7  98994376.21045                  24175436.834    24175437.945
 124636940.382 7  97119667.42744                  23717621.266    23717622.258
 121112815.300 8  94373629.99546                  23047002.407    23047001.144
 113493971.932 9  88436865.33746                  21597177.661    21597179.110
 122468932.420 8  95430349.93645                  23305057.394    23305056.490
 17  9  6  0 34 30.0000000  0 10G11G13G15G17G18G19G20G24G28G30
 128085586.100 6  99806947.87245                  24373876.545    24373877.515
 108066619.978 9  84207768.79548                  20564386.322    20564387.666
 110020272.770 9  85730085.84247                  20936158.767    20936159.813
 120485986.207 9  93885181.94846                  22927715.803    22927716.602
 125931313.344 7  98128292.78344                  23963928.515    23963931.601
 126927582.541 7  98904608.47445                  24153514.560    24153516.004
 124724185.860 7  97187650.86945                  23734224.180    23734224.342
 121018409.745 8  94300067.27046                  23029037.707    23029036.228
 113551361.057 9  88481584.14246                  21608098.473    21608099.874
 122564184.796 8  95504572.54445                  23323183.245    23323182.539
 17  9  6  0 35  0.0000000  0 10G11G13G15G17G18G19G20G24G28G30
 128064274.008 6  99790341.05744                  24369821.327    24369821.852
 108110125.297 9  84241669.04547                  20572665.102    20572666.453
 110008279.579 9  85720740.48847                  20933876.506    20933877.585
 120410519.703 9  93826376.91946                  22913355.014    22913355.697
 125908241.414 7  98110314.67445                  23959538.642    23959541.141
 126812514.901 7  98814945.41745                  24131617.948    24131619.372
 124811697.355 7  97255841.63644                  23750876.635    23750877.475
 120924176.250 8  94226638.57146                  23011105.532    23011104.219
 113609099.847 9  88526575.40646                  21619085.807    21619087.200
 122659588.939 8  95578913.42346                  23341338.314    23341337.499
 17  9  6  0 35 30.0000000  0 10G11G13G15G17G18G19G20G24G28G30
 128043544.055 6  99774187.84245                  24365877.203    24365876.615
 108154175.095 9  84275993.57047                  20581047.402    20581048.826
 109996867.117 9  85711847.66047                  20931704.733    20931705.860
 120335434.558 9  93767869.02746                  22899066.614    22899067.510
 125885664.501 7  98092722.25444                  23955242.538    23955244.981
 126697587.509 7  98725391.63245                  24109747.717    24109749.482
 124899474.489 7  97324239.39444                  23767579.890    23767580.938
 120830118.769 8  94153347.02746                  22993207.019    22993205.646
 113667189.148 9  88571839.80847                  21630139.676    21630141.268
 122755146.480 8  95653373.82446                  23359522.350    23359521.482
 17  9  6  0 36  0.0000000  0 10G11G13G15G17G18G19G20G24G28G30
 128023398.446 6  99758489.99244                  24362043.651    24362042.546
 108198770.014 9  84310742.85447                  20589533.593    20589535.005
 109986036.918 9  85703408.54247                  20929643.776    20929644.906
 120260734.494 9  93709661.19446                  22884851.735    22884852.531
 125863584.577 7  98075517.12944                  23951040.902    23951043.382
 126582804.713 7  98635950.53945                  24087905.281    24087906.994
 124987515.574 6  97392842.78444                  23784333.753    23784333.952
 120736239.641 8  94080194.48846                  22975342.429    22975341.072
 113725628.414 9  88617376.91047                  21641260.278    21641261.867
 122850857.466 8  95727953.75045                  23377735.621    23377734.719
 17  9  6  0 36 30.0000000  0 10G11G13G15G17G18G19G20G24G28G30
 128003831.823 6  99743243.28743                  24358320.242    24358319.207
 108243902.874 9  84345911.31047                  20598122.043    20598123.521
 109975783.629 9  85695418.97447                  20927692.657    20927693.776
 120186416.238 9  93651750.87146                  22870709.260    22870710.350
 125841995.913 7  98058694.78044                  23946933.094    23946935.113
 126468163.899 7  98546620.06046                  24066089.759    24066091.763
 125075811.313 7  97461644.66044                  23801136.072    23801136.470
 120642533.924 8  94007177.06746                  22957511.020    22957509.461
 113784409.585 9  88663180.42646                  21652445.912    21652447.552
 122946714.712 8  95802647.66845                  23395976.921    23395975.752
 17  9  6  0 37  0.0000000  0 10G11G13G15G17G18G19G20G24G28G30
 127984851.670 6  99728453.54845                  24354708.299    24354707.635
 108289578.568 9  84381502.75447                  20606813.906    20606815.364
 109966114.055 9  85687884.23547                  20925852.605    20925853.753
 120112487.836 9  93594144.34246                  22856641.157    22856642.196
 125820904.657 7  98042260.05844                  23942919.658    23942921.420
 126353674.245 7  98457407.40545                  24044303.087    24044305.148
 125164364.683 6  97530647.25043                  23817986.782    23817987.408
 120549009.071 8  93934300.56446                  22939713.574    22939712.327
 113843536.760 9  88709253.56746                  21663697.436    21663699.079
 123042723.058 8  95877459.31746                  23414246.888    23414245.491
 17  9  6  0 37 30.0000000  0 10G11G13G15G17G18G19G20G24G28G30
 127966455.268 6  99714118.75343                  24351207.771    24351207.749
 108335792.909 9  84417513.92547                  20615608.217    20615609.702
 109957024.637 9  85680801.56348                  20924123.013    20924124.088
 120038948.264 9  93536840.77246                  22842646.758    22842648.122
 125800307.764 7  98026210.54344                  23939000.447    23939001.759
 126239334.805 7  98368311.80245                  24022544.481    24022546.904
 125253168.829 7  97599845.26444                  23834886.017    23834886.174
 120455662.849 8  93861563.26846                  22921950.467    22921949.149
 113903004.321 8  88755591.93246                  21675013.760    21675015.398
 123138877.546 8  95952384.83146                  23432544.518    23432542.987
 17  9  6  0 38  0.0000000  0 10G11G13G15G17G18G19G20G24G28G30
 127948643.883 7  99700239.72043                  24347818.209    24347819.402
 108382545.035 9  84453944.13648                  20624504.862    20624506.348
 109948516.319 9  85674171.71747                  20922503.960    20922504.979
 119965800.080 9  93479842.22246                  22828727.427    22828728.372
 125780206.332 7  98010547.06544                  23935174.983    23935176.507
 126125149.315 7  98279336.14746                  24000815.939    24000818.068
 125342220.825 7  97669236.42244                  23851831.719    23851832.556
 120362496.763 8  93788966.32946                  22904221.424    22904220.131
 113962810.683 9  88802194.29646                  21686394.465    21686396.200
 123235177.307 8  96027423.57545                  23450869.669    23450868.270
 17  9  6  0 38 30.0000000  0 10G11G13G15G17G18G19G20G24G28G30
 127931421.809 7  99686819.89444                  24344540.493    24344543.090
 108429837.034 9  84490795.04247                  20633504.283    20633505.757
 109940592.826 9  85667997.55647                  20920996.182    20920997.159
 119893049.179 9  93423153.21346                  22814883.209    22814884.253
 125760603.841 7  97995272.41144                  23931444.772    23931446.300
 126011123.996 7  98190485.30246                  23979117.662    23979119.836
 125431520.752 7  97738820.71744                  23868825.319    23868825.565
 120269514.907 8  93716512.95946                  22886527.624    22886526.136
 114022957.470 8  88849061.93946                  21697839.961    21697841.842
 123331624.482 8  96102577.14845                  23469223.031    23469221.325
 17  9  6  0 39  0.0000000  0 10G11G13G15G17G18G19G20G24G28G30
 127914786.699 7  99673857.43143                  24341374.416    24341378.176
 108477664.157 9  84528062.92047                  20642605.404    20642606.974
 109933251.141 9  85662276.75848                  20919599.120    20919600.100
 119820694.273 9  93366772.79546                  22801114.680    22801115.531
 125741497.215 7  97980384.12444                  23927808.893    23927810.383
 125897259.014 7  98101759.39246                  23957449.523    23957452.110
 125521062.101 6  97808593.19644                  23885864.196    23885864.985
 120176715.490 8  93644201.71546                  22868868.617    22868866.976
 114083438.751 8  88896190.21847                  21709349.161    21709351.047
 123428214.241 8  96177841.88746                  23487603.433    23487601.864
 17  9  6  0 39 30.0000000  0 10G11G13G15G17G18G19G20G24G28G30
 127898743.019 6  99661355.87344                  24338320.065    24338325.653
 108526029.102 9  84565749.87748                  20651808.943    20651810.571
 109926495.240 9  85657012.42448                  20918313.554    20918314.507
 119748741.321 9  93310705.57846                  22787422.447    22787423.262
 125722890.680 7  97965885.52644                  23924268.210    23924269.843
 125783561.548 7  98013164.00546                  23935813.800    23935816.095
 125610845.396 6  97878554.15344                  23902949.704    23902949.916
 120084103.239 8  93572036.34346                  22851245.111    22851243.427
 114144256.247 9  88943580.48046                  21720922.392    21720924.279
 123524949.128 8  96253219.64645                  23506011.780    23506009.782
 17  9  6  0 40  0.0000000  0 10G11G13G15G17G18G19G20G24G28G30
 127883292.218 6  99649316.27443                  24335379.505    24335384.845
 108574930.991 9  84603855.23447                  20661114.645    20661116.356
 109920325.689 9  85652204.97848                  20917139.572    20917140.534
 119677193.264 9  93254953.89046                  22773807.377    22773808.006
 125704784.893 7  97951777.12544                  23920822.482    23920824.314
 125670034.707 7  97924701.56345                  23914210.299    23914212.441
 125700867.976 7  97948701.65144                  23920079.936    23920080.935
 119991680.341 8  93500018.49346                  22833657.472    22833656.094
 114205408.763 8  88991231.80046                  21732559.240    21732561.222
 123621828.507 8  96328710.03646                  23524447.450    23524445.166
 17  9  6  0 40 30.0000000  0 10G11G13G15G17G18G19G20G24G28G30
 127868430.338 6  99637735.56943                  24332551.722    24332555.753
 108624364.485 9  84642374.83847                  20670521.511    20670523.243
 109914738.664 9  85647851.45448                  20916076.435    20916077.365
 119606047.658 9  93199515.77646                  22760268.754    22760269.519
 125687175.491 7  97938055.50044                  23917471.749    23917473.475
 125556677.057 7  97836370.96145                  23892638.957    23892641.144
 125791122.085 7  98019029.47344                  23937255.418    23937255.929
 119899443.027 8  93428145.28746                  22816105.324    22816103.882
 114266890.008 8  89039139.26947                  21744258.657    21744260.672
 123718846.462 8  96404308.40946                  23542909.367    23542906.855
 17  9  6  0 41  0.0000000  0 11G10G11G13G15G17G18G19G20G24G28G30
 129854810.44016 101185562.23354                  24710549.359    24710548.113
 127854166.226 6  99626620.72744                  24329837.914    24329839.700
 108674336.329 9  84681313.94047                  20680030.822    20680032.587
 109909742.404 9  85643958.26548                  20915125.663    20915126.632
 119535314.704 9  93144399.20946                  22746808.604    22746809.568
 125670070.902 7  97924727.26545                  23914217.179    23914218.740
 125443500.025 8  97748181.12646                  23871102.160    23871104.408
 125881612.522 7  98089541.44544                  23954474.986    23954475.616
 119807400.153 8  93356423.57046                  22798590.224    22798588.705
 114328705.712 9  89087307.35846                  21756021.880    21756023.857
 123816009.785 8  96480020.06345                  23561398.736    23561396.528
 17  9  6  0 41 30.0000000  0 11G10G11G13G15G17G18G19G20G24G28G30
 129791383.188 6 101136138.46344                  24698479.127    24698477.821
 127840491.967 6  99615965.46544                  24327236.584    24327236.648
 108724836.001 9  84720664.31847                  20689640.579    20689642.325
 109905328.460 9  85640518.83747                  20914285.712    20914286.728
 119464988.028 9  93089599.22946                  22733425.965    22733426.817
 125653462.423 7  97911785.58344                  23911056.573    23911058.127
 125330497.633 8  97660127.36545                  23849598.540    23849600.768
 125972327.325 7  98160228.34244                  23971737.639    23971738.479
 119715544.671 8  93284847.87346                  22781110.868    22781109.289
 114390844.779 9  89135727.41946                  21767846.439    21767848.576
 123913308.561 8  96555837.25845                  23579913.924    23579911.649
 17  9  6  0 42  0.0000000  0 11G10G11G13G15G17G18G19G20G24G28G30
 129728423.097 6 101087078.65844                  24686498.114    24686497.289
 127827411.666 6  99605773.01544                  24324748.078    24324747.436
 108775865.867 9  84760427.83147                  20699351.273    20699352.956
 109901499.748 9  85637535.42748                  20913557.095    20913558.196
 119395072.760 9  93035119.81446                  22720121.284    22720122.497
 125637353.385 7  97899233.08644                  23907991.049    23907992.489
 125217676.108 8  97572214.51646                  23828129.378    23828131.551
 126063266.017 7  98231089.60744                  23989042.753    23989043.364
 119623880.550 8  93213421.28746                  22763667.530    22763666.175
 114453308.492 9  89184400.44046                  21779732.865    21779734.972
 124010744.345 8  96631761.24345                  23598455.291    23598453.425
 17  9  6  0 42 30.0000000  0 11G10G11G13G15G17G18G19G20G24G28G30
 129665931.514 6 101038383.92445                  24674606.828    24674605.702
 127814925.000 6  99596043.16944                  24322372.164    24322372.123
 108827423.857 9  84800602.85747                  20709162.462    20709164.086
 109898256.004 9  85635007.82948                  20912939.845    20912940.914
 119325570.789 9  92980962.44946                  22706895.487    22706896.730
 125621743.610 7  97887069.63944                  23905020.901    23905022.160
 125105038.056 7  97484444.66846                  23806695.008    23806697.266
 126154424.981 6  98302122.57244                  24006389.484    24006390.404
 119532408.974 8  93142144.74546                  22746260.956    22746259.653
 114516094.438 8  89233324.55946                  21791680.505    21791682.663
 124108315.298 8  96707790.55745                  23617022.479    23617020.631
 17  9  6  0 43  0.0000000  0 11G10G11G13G15G17G18G19G20G24G28G30
 129603912.720 6 100990057.63345                  24662805.078    24662803.270
 127803035.167 6  99586778.34044                  24320109.896    24320110.253
 108879511.009 9  84841190.24248                  20719074.377    20719075.923
 109895599.791 9  85632938.06348                  20912434.356    20912435.441
 119256486.591 9  92927130.62246                  22693749.152    22693750.450
 125606635.211 7  97875296.86244                  23902145.510    23902147.365
 124992589.124 7  97396822.14746                  23785296.586    23785298.714
 126245803.148 7  98373326.29845                  24023778.260    24023779.132
 119441132.793 8  93071020.44546                  22728891.714    22728890.570
 114579202.656 8  89282499.80046                  21803689.677    21803691.763
 124206022.607 8  96783926.07245                  23635615.481    23635613.553
 17  9  6  0 43 30.0000000  0 11G10G11G13G15G17G18G19G20G24G28G30
 129542368.971 5 100942101.52444                  24651093.401    24651091.135
 127791743.179 7  99577979.37943                  24317961.199    24317962.084
 108932126.546 9  84882189.35347                  20729086.802    20729088.333
 109893531.278 9  85631326.23047                  20912040.700    20912041.858
 119187822.509 9  92873626.15046                  22680682.912    22680684.050
 125592029.180 7  97863915.58644                  23899365.659    23899368.239
 124880332.761 7  97309349.71146                  23763935.039    23763936.842
 126337397.803 7  98444698.73844                  24041207.956    24041209.087
 119350053.427 8  93000049.52346                  22711559.798    22711558.642
 114642631.556 8  89331924.91346                  21815759.795    21815761.804
 124303865.213 8  96860167.05445                  23654234.223    23654232.394
 17  9  6  0 44  0.0000000  0 11G10G11G13G15G17G18G19G20G24G28G30
 129481301.518 6 100894516.54944                  24639472.267    24639469.921
 127781048.831 7  99569646.13143                  24315925.761    24315927.772
 108985268.076 9  84923598.34247                  20739199.293    20739200.800
 109892050.177 9  85630172.12148                  20911758.885    20911760.014
 119119579.825 9  92820450.04046                  22667696.832    22667697.923
 125577924.484 7  97852924.92944                  23896681.514    23896684.110
 124768271.347 7  97222029.17346                  23742610.342    23742612.336
 126429204.970 6  98516236.76545                  24058678.410    24058679.410
 119259172.043 8  92929232.86946                  22694265.663    22694264.442
 114706378.538 8  89381597.89046                  21827890.344    21827892.482
 124401841.295 8  96936512.01245                  23672878.579    23672876.658
 17  9  6  0 44 30.0000000  0 11G10G11G13G15G17G18G19G20G24G28G30
 129420713.458 6 100847305.08745                  24627942.807    24627940.296
 127770954.036 6  99561780.02744                  24314004.686    24314006.957
 109038935.805 9  84965417.34047                  20749411.911    20749413.352
 109891157.842 9  85629476.79148                  20911589.086    20911590.226
 119051762.158 9  92767605.12646                  22654791.686    22654792.692
 125564322.632 7  97842326.05443                  23894093.175    23894095.311
 124656409.097 7  97134863.79846                  23721323.644    23721325.616
 126521222.837 6  98587938.94645                  24076188.937    24076189.762
 119168490.398 8  92858571.85346                  22677009.659    22677008.358
 114770442.608 8  89431517.95646                  21840081.349    21840083.385
 124499950.608 8  97012960.79645                  23691548.008    23691546.400
 17  9  6  0 45  0.0000000  0 11G10G11G13G15G17G18G19G20G24G28G30
 129360605.090 6 100800467.40545                  24616504.521    24616502.600
 127761457.927 6  99554380.47544                  24312197.381    24312199.575
 109093126.587 9  85007643.91547                  20759724.057    20759725.521
 109890853.112 9  85629239.34448                  20911531.175    20911532.238
 118984370.538 9  92715092.18546                  22641967.337    22641968.564
 125551222.241 7  97832117.99544                  23891600.332    23891602.408
 124544747.758 7  97047855.07946                  23700075.287    23700077.003
 126613446.501 7  98659801.55344                  24093738.444    24093739.669
 119078008.585 8  92788066.54846                  22659791.398    22659790.170
 114834820.237 8  89481682.34946                  21852332.059    21852334.005
 124598190.478 8  97089511.31945                  23710242.359    23710240.981
 17  9  6  0 45 30.0000000  0 11G10G11G13G15G17G18G19G20G24G28G30
 129300977.950 6 100754004.73345                  24605157.732    24605156.296
 127752560.571 6  99547447.46143                  24310503.947    24310506.517
 109147838.963 9  85050276.91647                  20770135.509    20770136.898
 109891135.285 9  85629459.21947                  20911584.879    20911585.904
 118917406.213 9  92662912.19746                  22629224.512    22629225.712
 125538622.911 7  97822300.32044                  23889202.908    23889205.174
 124433290.005 7  96961004.99146                  23678865.319    23678867.173
 126705872.129 6  98731821.46144                  24111326.449    24111327.622
 118987727.174 8  92717717.41046                  22642611.260    22642610.064
 114899508.781 8  89532089.00846                  21864641.842    21864643.707
 124696559.317 8  97166162.30345                  23728961.472    23728959.883
 17  9  6  0 46  0.0000000  0 11G10G11G13G15G17G18G19G20G24G28G30
 129241837.047 6 100707920.93445                  24593903.559    24593901.948
 127744265.712 6  99540983.90944                  24308925.596    24308927.809
 109203074.394 9  85093317.48047                  20780646.508    20780647.834
 109892007.688 9  85630139.01648                  20911750.862    20911751.893
 118850874.512 9  92611069.31746                  22616563.852    22616565.216
 125526527.752 7  97812875.53743                  23886901.181    23886903.381
 124322042.057 8  96874318.30146                  23657695.750    23657697.428
 126798499.791 7  98803998.82844                  24128953.364    24128954.050
 118897650.481 8  92647527.80146                  22625470.225    22625468.962
 114964509.889 8  89582739.23346                  21877011.053    21877012.977
 124795058.917 8  97242915.20345                  23747705.230    23747703.698
 17  9  6  0 46 30.0000000  0 11G10G11G13G15G17G18G19G20G24G28G30
 129183181.754 6 100662215.54144                  24582742.209    24582740.443
 127736571.425 7  99534988.36944                  24307461.516    24307463.753
 109258829.149 9  85136762.71547                  20791256.293    20791257.611
 109893467.750 9  85631276.72348                  20912028.694    20912029.710
 118784774.748 9  92559563.03446                  22603985.538    22603986.760
 125514934.420 7  97803841.78144                  23884694.953    23884696.833
 124211004.748 8  96787795.73746                  23636566.201    23636567.754
 126891323.747 7  98876329.17644                  24146617.159    24146618.100
 118807777.460 8  92577496.88846                  22608367.953    22608366.623
 115029818.769 8  89633629.26646                  21889438.980    21889440.748
 124893685.637 8  97319767.15645                  23766473.217    23766471.721
 17  9  6  0 47  0.0000000  0 11G10G11G13G15G17G18G19G20G24G28G30
 129125016.002 6 100616891.60844                  24571673.390    24571671.856
 127729480.423 6  99529462.92344                  24306112.428    24306114.404
 109315104.082 9  85180613.28247                  20801965.141    20801966.410
 109895517.770 9  85632874.14048                  20912418.799    20912419.792
 118719111.790 9  92508397.08146                  22591490.098    22591491.497
 125503845.318 7  97795200.92244                  23882584.775    23882586.611
 124100183.273 7  96701441.36646                  23615477.460    23615479.170
 126984343.120 6  98948811.79444                  24164317.895    24164318.711
 118718111.426 8  92507627.26946                  22591305.369    22591303.667
 115095435.587 8  89684759.25846                  21901925.339    21901927.190
 124992440.334 8  97396718.83145                  23785265.762    23785264.210
 17  9  6  0 47 30.0000000  0 11G10G11G13G15G17G18G19G20G24G28G30
 129067341.580 6 100571950.53345                  24560698.191    24560696.422
 127722992.978 6  99524407.77244                  24304878.008    24304879.783
 109371897.439 9  85224867.88347                  20812772.521    20812773.898
 109898157.578 9  85634931.13348                  20912921.130    20912922.119
 118653887.803 9  92457573.22746                  22579078.661    22579079.654
 125493260.262 7  97786952.84844                  23880570.359    23880572.247
 123989581.000 8  96615257.82146                  23594430.497    23594432.258
 127077554.430 6  99021443.96044                  24182055.541    24182056.240
 118628654.049 8  92437920.23146                  22574282.091    22574280.458
 115161358.141 8  89736127.50246                  21914469.951    21914471.852
 125091321.750 8  97473769.26545                  23804081.921    23804080.652
 17  9  6  0 48  0.0000000  0 11G10G11G13G15G17G18G19G20G24G28G30
 129010158.168 6 100527392.06345                  24549816.756    24549814.703
 127717107.379 7  99519821.57243                  24303757.813    24303759.654
 109429205.757 9  85269523.72847                  20823677.957    20823679.272
 109901385.297 9  85637446.23948                  20913535.322    20913536.339
 118589102.089 9  92407090.86246                  22566750.047    22566751.336
 125483176.981 7  97779095.71945                  23878652.125    23878653.320
 123879199.059 8  96529245.98946                  23573425.536    23573427.279
 127170952.421 6  99094221.59744                  24199828.576    24199829.239
 118539403.611 8  92368374.44646                  22557298.369    22557296.778
 115227582.311 8  89787730.74146                  21927072.088    21927073.851
 125190326.450 8  97550915.74345                  23822922.146    23822920.906
 17  9  6  0 48 30.0000000  0 11G10G11G13G15G17G18G19G20G24G28G30
 128953468.354 6 100483218.19345                  24539028.840    24539027.008
 127711824.933 6  99515705.40044                  24302753.090    24302754.765
 109487028.369 9  85314580.31047                  20834681.151    20834682.556
 109905201.445 9  85640419.85248                  20914261.478    20914262.480
 118524757.788 9  92356952.44946                  22554505.918    22554507.094
 125473596.474 7  97771630.40444                  23876829.278    23876830.263
 123769041.067 8  96443408.64646                  23552462.890    23552464.844
 127264534.472 7  99167142.67844                  24217636.740    24217637.531
 118450362.506 8  92298991.78347                  22540354.414    22540352.736
 115294107.195 8  89839568.32746                  21939731.310    21939733.062
 125289454.013 7  97628157.96345                  23841785.264    23841784.212
 17  9  6  0 49  0.0000000  0 11G10G11G13G15G17G18G19G20G24G28G30
 128897276.863 6 100439432.63245                  24528336.096    24528334.147
 127707148.977 7  99512061.78244                  24301863.052    24301864.889
 109545366.742 9  85360038.75947                  20845782.507    20845784.015
 109909608.877 9  85643854.22148                  20915100.117    20915101.181
 118460859.799 9  92307161.81946                  22542346.301    22542347.705
 125464521.500 7  97764558.98244                  23875102.158    23875103.466
 123659113.058 8  96357750.50746                  23531544.222    23531546.192
 127358300.474 6  99240207.07744                  24235479.637    24235480.424
 118361535.063 8  92229775.60646                  22523451.071    22523449.417
 115360933.577 8  89891640.83546                  21952448.040    21952449.753
 125388706.144 7  97705497.25745                  23860672.363    23860671.294
 17  9  6  0 49 30.0000000  0 11G10G11G13G15G17G18G19G20G24G28G30
 128841581.304 6 100396033.53144                  24517737.623    24517735.842
 127703075.732 6  99508887.83844                  24301087.866    24301089.729
 109604215.407 9  85405894.85347                  20856981.034    20856982.519
 109914603.474 9  85647746.11748                  20916050.474    20916051.567
 118397406.220 9  92257717.49847                  22530271.492    22530272.891
 125455947.839 7  97757878.21543                  23873470.639    23873472.054
 123549414.136 8  96272270.88346                  23510669.263    23510671.318
 127452243.124 6  99313409.11844                  24253356.438    24253357.116
 118272918.190 8  92160723.50346                  22506587.644    22506586.235
 115428055.264 8  89943943.45046                  21965220.880    21965222.598
 125488077.536 7  97782929.46945                  23879582.321    23879580.952
 17  9  6  0 50  0.0000000  0 11G10G11G13G15G17G18G19G20G24G28G30
 128786387.936 6 100353025.72244                  24507234.409    24507233.357
 127699610.084 6  99506187.30743                  24300428.216    24300430.060
 109663577.257 9  85452150.82447                  20868277.230    20868278.793
 109920189.408 9  85652098.79447                  20917113.374    20917114.511
 118334403.613 9  92208624.58346                  22518282.349    22518283.917
 125447879.854 7  97751591.47444                  23871935.047    23871936.833
 123439952.492 8  96186976.16346                  23489839.314    23489841.311
 127546363.589 6  99386749.75744                  24271266.917    24271267.425
 118184517.508 8  92091839.86147                  22489765.639    22489764.174
 115495474.616 8  89996478.00946                  21978050.371    21978052.062
 125587571.390 7  97860457.12345                  23898515.236    23898513.956
 17  9  6  0 50 30.0000000  0 11G10G11G13G15G17G18G19G20G24G28G30
 128731695.375 6 100310408.17444                  24496826.425    24496825.887
 127696749.275 6  99503958.12044                  24299883.895    24299885.488
 109723447.426 9  85498802.84947                  20879670.192    20879671.719
 109926363.786 9  85656909.99947                  20918288.350    20918289.439
 118271850.788 9  92159882.13546                  22506378.952    22506380.504
 125440314.463 7  97745696.36844                  23870495.326    23870497.252
 123330727.831 8  96101866.11646                  23469054.655    23469056.478
 127640655.785 7  99460224.19244                  24289210.705    24289210.793
 118096331.170 8  92023123.25947                  22472984.457    22472982.812
 115563186.535 8  90049240.55446                  21990935.501    21990937.242
 125687183.369 7  97938076.78345                  23917471.261    23917469.527
 17  9  6  0 51  0.0000000  0 11G10G11G13G15G17G18G19G20G24G28G30
 128677506.578 6 100268183.14645                  24486514.406    24486513.977
 127694494.846 6  99502201.40243                  24299454.764    24299456.502
 109783826.081 9  85545851.15747                  20891159.900    20891161.401
 109933127.727 9  85662180.60647                  20919575.478    20919576.574
 118209751.073 9  92111492.76546                  22494561.721    22494563.292
 125433253.046 7  97740193.98444                  23869151.786    23869153.735
 123221744.337 7  96016943.97246                  23448315.701    23448317.424
 127735117.456 6  99533830.67943                  24307185.726    24307186.293
 118008362.238 8  91954576.02946                  22456244.279    22456243.042
 115631190.395 8  90102230.58546                  22003876.231    22003877.898
 125786913.475 8  98015788.52846                  23936449.027    23936447.743
 17  9  6  0 51 30.0000000  0 11G10G11G13G15G17G18G19G20G24G28G30
 128623825.603 6 100226353.86844                  24476299.620    24476298.399
 127692849.370 6  99500919.21844                  24299140.985    24299143.111
 109844713.706 9  85593296.03147                  20902746.400    20902747.991
 109940483.212 9  85667912.15547                  20920975.181    20920976.270
 118148108.446 9  92063459.56646                  22482831.752    22482833.078
 125426698.021 7  97735086.16144                  23867904.388    23867906.195
 123113007.758 8  95932214.19646                  23427623.458    23427625.423
 127829748.031 7  99607568.78145                  24325192.804    24325193.899
 117920613.978 8  91886200.77846                  22439546.513    22439545.151
 115699486.905 8  90155448.64446                  22016872.601    22016874.316
 125886762.933 8  98093593.23945                  23955449.976    23955448.850
 17  9  6  0 52  0.0000000  0 11G10G11G13G15G17G18G19G20G24G28G30
 128570650.572 6 100184918.77744                  24466181.205    24466179.414
 127691809.322 6  99500108.80044                  24298943.424    24298945.119
 109906105.244 9  85641133.57147                  20914428.846    20914430.471
 109948426.242 9  85674101.53047                  20922486.575    20922487.773
 118086921.611 9  92015781.51446                  22471188.239    22471189.557
 125420644.766 7  97730369.32444                  23866752.458    23866754.430
 123004517.432 8  95847676.27346                  23406978.571    23406980.269
 127924540.452 6  99681433.00045                  24343231.339    24343232.422
 117833083.811 8  91817995.46347                  22422889.971    22422888.696
 115768069.928 8  90208889.97246                  22029923.588    22029925.291
 125986726.791 8  98171487.11445                  23974472.509    23974471.393
 17  9  6  0 52 30.0000000  0 11G10G11G13G15G17G18G19G20G24G28G30
 128517985.453 6 100143881.04445                  24456158.784    24456157.391
 127691377.525 6  99499772.31744                  24298861.076    24298862.540
 109968001.648 9  85689364.54747                  20926207.374    20926209.019
 109956959.364 9  85680750.70947                  20924110.380    20924111.560
 118026195.169 9  91968462.24646                  22459632.505    22459633.568
 125415095.787 7  97726045.43344                  23865696.482    23865698.619
 122896279.460 8  95763334.96746                  23386381.525    23386383.161
 128019493.743 7  99755422.54944                  24361300.365    24361301.468
 117745775.856 8  91749963.30046                  22406275.883    22406274.568
 115836939.921 8  90262554.90246                  22043029.135    22043030.832
 126086806.364 8  98249471.12845                  23993517.338    23993515.885
 17  9  6  0 53  0.0000000  0 11G10G11G13G15G17G18G19G20G24G28G30
 128465830.788 7 100103241.03244                  24446233.865    24446232.766
 127691553.057 6  99499909.09544                  24298893.647    24298895.990
 110030399.781 9  85737986.46647                  20938081.411    20938083.018
 109966081.080 9  85687858.54648                  20925846.133    20925847.377
 117965929.595 9  91921502.08047                  22448164.192    22448165.286
 125410049.715 7  97722113.42644                  23864736.176    23864738.401
 122788295.604 8  95679191.71446                  23365832.799    23365834.427
 128114603.997 6  99829534.43744                  24379399.085    24379400.472
 117658689.611 8  91682103.88647                  22389703.753    22389702.631
 115906093.817 8  90316441.06746                  22056188.565    22056190.399
 126186999.204 8  98327543.41145                  24012583.577    24012581.895
 17  9  6  0 53 30.0000000  0 11G10G11G13G15G17G18G19G20G24G28G30
 128414188.379 7 100063000.19145                  24436406.594    24436405.887
 127692336.003 6  99500519.17244                  24299043.008    24299045.247
 110093298.408 9  85786998.36647                  20950050.694    20950052.194
 109975791.452 9  85695425.07547                  20927694.018    20927695.211
 117906127.066 9  91874902.73646                  22436784.218    22436785.112
 125405506.593 7  97718573.31444                  23863871.928    23863873.904
 122680569.213 7  95595249.11446                  23345333.121    23345334.765
 128209868.227 7  99903766.31943                  24397527.566    24397528.641
 117571827.111 8  91614418.82547                  22373174.408    22373173.270
 115975529.591 8  90370546.88046                  22069401.871    22069403.611
 126287304.203 8  98405703.10745                  24031670.737    24031669.426
 17  9  6  0 54  0.0000000  0 11G10G11G13G15G17G18G19G20G24G28G30
 128363062.974 7 100023162.21845                  24426678.022    24426677.171
 127693729.800 6  99501605.27043                  24299308.976    24299310.567
 110156699.171 9  85836401.53247                  20962115.421    20962116.981
 109986093.529 9  85703452.66447                  20929654.391    20929655.637
 117846792.709 9  91828668.18446                  22425493.283    22425494.177
 125401469.728 7  97715427.69944                  23863103.789    23863105.975
 122573106.586 8  95511512.06046                  23324883.684    23324885.229
 128305285.956 6  99978117.76944                  24415685.186    24415685.906
 117485192.361 8  91546911.24646                  22356688.292    22356687.101
 116045248.712 8  90424873.45446                  22082669.052    22082670.760
 126387723.329 8  98483951.76145                  24050780.018    24050778.663
 17  9  6  0 54 30.0000000  0 11G10G11G13G15G17G18G19G20G24G28G30
 128312451.903 6  99983725.03444                  24417047.257    24417046.264
 127695730.432 6  99503164.15643                  24299689.894    24299691.049
 110220595.859 9  85886191.14947                  20974274.646    20974276.170
 109996982.241 9  85711937.38447                  20931726.553    20931727.678
 117787923.710 9  91782796.27046                  22414290.733    22414291.660
 125397934.123 7  97712672.68343                  23862430.948    23862432.970
 122465906.558 8  95427979.59946                  23304484.166    23304485.819
 128400849.764 6 100052583.05643                  24433870.377    24433871.201
 117398782.543 8  91479578.93447                  22340245.130    22340243.823
 116115244.802 8  90479415.86746                  22095988.767    22095990.579
 126488251.067 7  98562284.99345                  24069909.839    24069908.444
 17  9  6  0 55  0.0000000  0 11G10G11G13G15G17G18G19G20G24G28G30
 128262361.637 6  99944693.69445                  24407515.504    24407514.427
 127698342.806 6  99505199.78544                  24300186.870    24300188.078
 110284991.706 9  85936369.68247                  20986528.771    20986530.263
 110008462.306 9  85720882.89548                  20933911.146    20933912.238
 117729527.294 9  91737292.57146                  22403178.372    22403179.198
 125394904.692 7  97710312.08744                  23861854.673    23861856.459
 122358977.352 8  95344658.24146                  23284136.041    23284137.856
 128496561.441 6 100127163.56644                  24452083.219    24452084.343
 117312604.290 8  91412427.06147                  22323846.025    22323844.570
 116185520.568 8  90534176.21446                  22109361.735    22109363.613
 126588891.102 8  98640705.77845                  24089060.545    24089059.600
 17  9  6  0 55 30.0000000  0 11G10G11G13G15G17G18G19G20G24G28G30
 128212788.085 6  99906064.93645                  24398082.082    24398080.644
 127701561.248 6  99507707.67843                  24300799.186    24300800.807
 110349879.667 9  85986931.69647                  20998876.646    20998878.073
 110020527.652 9  85730284.46747                  20936207.152    20936208.173
 117671599.426 9  91692154.01446                  22392154.984    22392155.754
 125392375.445 7  97708341.24844                  23861373.587    23861375.302
 122252316.503 8  95261545.93246                  23263839.105    23263841.144
 128592412.218 6 100201852.49344                  24470322.903    24470324.270
 117226652.215 8  91345451.42247                  22307489.760    22307488.368
 116256068.472 8  90589148.60446                  22122786.523    22122788.462
 126689636.599 7  98719208.71845                  24108232.062    24108230.926
 17  9  6  0 56  0.0000000  0 11G10G11G13G15G17G18G19G20G24G28G30
 128163738.830 6  99867844.73545                  24388748.684    24388746.928
 127705391.833 6  99510692.52944                  24301527.819    24301529.832
 110415264.119 9  86037880.61847                  21011318.985    21011320.285
 110033184.342 9  85740146.83647                  20938615.635    20938616.655
 117614148.358 9  91647386.96646                  22381222.360    22381223.108
 125390351.935 7  97706764.48044                  23860988.227    23860990.466
 122145933.026 8  95178649.73946                  23243594.955    23243596.982
 128688405.363 6 100276652.32444                  24488590.442    24488591.170
 117140934.309 8  91278658.26647                  22291178.021    22291176.787
 116326892.716 8  90644336.33846                  22136264.069    22136265.886
 126790492.358 7  98797797.56845                  24127424.629    24127423.002
 17  9  6  0 56 30.0000000  0 11G10G11G13G15G17G18G19G20G24G28G30
 128115212.176 6  99830031.78545                  24379514.391    24379512.357
 127709831.224 6  99514151.76644                  24302372.295    24302374.882
 110481139.969 9  86089212.42947                  21023854.722    21023856.018
 110046428.642 9  85750467.07348                  20941135.866    20941137.003
 117557172.508 9  91602990.23846                  22370380.340    22370380.935
 125388830.766 7  97705579.16244                  23860698.615    23860700.789
 122039826.867 8  95095969.65146                  23223403.786    23223405.723
 128784533.767 6 100351557.55544                  24506882.660    24506883.673
 117055448.422 8  91212045.88747                  22274910.804    22274909.376
 116397988.040 8  90699735.28946                  22149792.944    22149794.817
 126891453.965 7  98876468.90545                  24146637.102    24146635.262
 17  9  6  0 57  0.0000000  0 11G10G11G13G15G17G18G19G20G24G28G30
 128067210.327 6  99792627.71944                  24370379.356    24370377.332
 127714880.579 6  99518086.31644                  24303333.114    24303335.772
 110547506.276 9  86140926.39247                  21036483.899    21036485.006
 110060260.806 9  85761245.38447                  20943768.109    20943769.218
 117500674.481 9  91558965.81247                  22359629.026    22359629.724
 125387812.405 7  97704785.57244                  23860504.927    23860506.978
 121934002.082 8  95013508.77546                  23203265.738    23203268.102
 128880795.014 6 100426566.29444                  24525200.827    24525201.799
 116970196.576 8  91145615.89347                  22258687.868    22258686.399
 116469352.976 8  90755344.34546                  22163373.197    22163375.071
 126992520.876 8  98955222.31544                  24165869.329    24165867.590
 17  9  6  0 57 30.0000000  0 11G10G11G13G15G17G18G19G20G24G28G30
 128019734.516 6  99755633.60245                  24361345.015    24361342.855
 127720539.130 6  99522495.58543                  24304410.742    24304412.154
 110614360.918 9  86193020.93147                  21049205.903    21049207.015
 110074680.073 9  85772481.17647                  20946512.027    20946513.107
 117444655.819 9  91515314.93646                  22348969.166    22348969.816
 125387296.058 7  97704383.26644                  23860406.222    23860408.548
 121828461.429 8  94931269.33946                  23183182.104    23183184.431
 128977185.941 6 100501676.10644                  24543543.540    24543544.257
 116885179.938 8  91079369.17347                  22242509.643    22242508.301
 116540985.460 8  90811161.86546                  22177004.429    22177006.160
 127093691.700 7  99034056.68245                  24185121.601    24185119.615
 17  9  6  0 58  0.0000000  0 10G10G11G13G15G17G18G19G24G28G30
 127972789.696 6  99719053.20645                  24352411.708    24352409.826
 127726810.335 6  99527382.22843                  24305604.202    24305605.412
 110681705.821 9  86245497.46647                  21062021.170    21062022.312
 110089689.403 9  85784176.76348                  20949368.277    20949369.235
 117389121.659 9  91472041.58546                  22338401.257    22338402.052
 125387284.748 7  97704374.42943                  23860403.980    23860406.235
 121723211.960 8  94849256.80246                  23163153.988    23163156.123
 116800403.473 8  91013309.60547                  22226377.245    22226375.858
 116612886.647 8  90867188.77546                  22190686.780    22190688.531
 127194968.526 7  99112973.65745                  24204393.826    24204392.008
 17  9  6  0 58 30.0000000  0 10G10G11G13G15G17G18G19G24G28G30
 127926371.377 6  99682883.08145                  24343578.625    24343577.071
 127733688.224 6  99532741.63244                  24306912.359    24306914.254
 110749533.185 9  86298349.88647                  21074928.195    21074929.377
 110105282.701 9  85796327.38247                  20952335.628    20952336.505
 117334068.034 9  91429142.68646                  22327924.961    22327925.749
 125387772.361 7  97704754.37343                  23860496.873    23860499.025
 121618250.699 8  94767468.81446                  23143180.381    23143182.713
 116715862.072 8  90947433.19247                  22210289.575    22210288.182
 116685048.904 8  90923419.09046                  22204418.797    22204420.469
 127296344.338 7  99191967.77345                  24223685.011    24223683.397
 17  9  6  0 59  0.0000000  0 10G10G11G13G15G17G18G19G24G28G30
 127880487.323 6  99647129.27645                  24334847.196    24334845.673
 127741178.840 7  99538578.46043                  24308337.741    24308339.826
 110817847.664 9  86351581.93147                  21087928.057    21087929.255
 110121465.565 9  85808937.40248                  20955415.101    20955415.930
 117279502.968 9  91386624.48347                  22317541.521    22317542.416
 125388764.386 7  97705527.37143                  23860685.570    23860687.664
 121513587.034 8  94685912.75746                  23123263.544    23123265.594
 116631562.967 8  90881745.58447                  22194247.967    22194246.555
 116757476.488 8  90979856.17646                  22218201.241    22218202.932
 127397824.269 7  99271042.98745                  24242996.062    24242994.202
 17  9  6  0 59 30.0000000  0 10G10G11G13G15G17G18G19G24G28G30
 127835134.723 6  99611789.57944                  24326216.622    24326215.551
 127749278.194 6  99544889.62943                  24309879.169    24309881.224
 110886643.112 9  86405188.75447                  21101019.482    21101020.600
 110138233.327 9  85822003.20048                  20958605.910    20958606.729
 117225423.948 9  91344484.99947                  22307250.453    22307251.551
 125390256.359 7  97706689.96544                  23860969.549    23860971.756
 121409219.956 8  94604587.78946                  23103402.881    23103405.146
 116547504.409 8  90816245.41347                  22178252.362    22178250.814
 116830163.360 8  91036495.30046                  22232033.041    22232034.808
 127499402.848 7  99350195.10045                  24262325.580    24262324.028
 17  9  6  1  0  0.0000000  0 10G10G11G13G15G17G18G19G24G28G30
 127790314.404 7  99576864.65746                  24317688.049    24317686.813
 127757985.106 6  99551674.23943                  24311536.147    24311538.029
 110955917.024 9  86459168.39647                  21114201.801    21114203.011
 110155584.751 9  85835523.78648                  20961907.699    20961908.571
 117171832.128 9  91302725.16547                  22297052.336    22297053.295
 125392247.632 7  97708241.60143                  23861348.482    23861350.801
 121305151.913 8  94523495.84946                  23083599.424    23083601.573
 116463686.302 8  90750932.61647                  22162302.180    22162300.842
 116903106.784 8  91093334.33045                  22245913.743    22245915.539
 127601078.238 7  99429422.64844                  24281673.848    24281672.104
 17  9  6  1  0 30.0000000  0 10G10G11G13G15G17G18G19G24G28G30
 127746033.181 7  99542359.82545                  24309261.556    24309260.567
 127767305.262 6  99558936.72144                  24313309.849    24313311.941
 111025673.308 9  86513523.96447                  21127476.032    21127477.256
 110173524.961 9  85849503.18047                  20965321.571    20965322.510
 117118734.700 9  91261350.56046                  22286948.144    22286949.297
 125394742.415 7  97710185.58843                  23861823.185    23861825.418
 121201391.695 8  94442643.76246                  23063854.694    23063856.666
 116380115.695 8  90685812.67047                  22146399.179    22146397.837
 116976310.285 8  91150376.02546                  22259843.968    22259845.589
 127702854.778 7  99508729.01344                  24301041.280    24301039.578
 17  9  6  1  1  0.0000000  0 10G10G11G13G15G17G18G19G24G28G30
 127702289.266 7  99508273.62645                  24300937.297    24300936.210
 127777234.969 6  99566674.12743                  24315199.319    24315201.441
 111095906.850 9  86568251.38147                  21140841.026    21140842.296
 110192049.884 9  85863938.18647                  20968846.770    20968847.703
 117066130.075 9  91220359.95347                  22276937.803    22276938.982
 125397737.603 7  97712519.49645                  23862392.966    23862395.318
 121097939.028 8  94362031.32146                  23044168.092    23044170.331
 116296790.818 8  90620884.19047                  22130542.966    22130541.735
 117049768.669 8  91207616.32346                  22273822.626    22273824.321
 127804728.072 7  99588110.78045                  24320427.294    24320425.266
 17  9  6  1  1 30.0000000  0 10G10G11G13G15G17G18G19G24G28G30
 127659082.573 7  99474606.10145                  24292715.038    24292714.030
 127787772.704 6  99574885.32143                  24317204.049    24317206.884
 111166614.355 9  86623348.10147                  21154296.177    21154297.504
 110211157.965 9  85878827.59848                  20972482.871    20972483.898
 117014018.461 9  91179753.52947                  22267021.376    22267022.430
 125401231.206 7  97715241.77544                  23863057.858    23863060.104
 120994795.962 8  94281660.09146                  23024540.204    23024542.864
 116213711.323 8  90556146.92147                  22114733.326    22114732.245
 117123478.427 8  91265052.50046                  22287848.982    22287850.750
 127906695.438 7  99667565.85844                  24339831.302    24339829.261
 17  9  6  1  2  0.0000000  0 10G10G11G13G15G17G18G19G24G28G30
 127616417.128 7  99441360.29644                  24284596.432    24284594.899
 127798920.792 6  99583572.15343                  24319325.630    24319328.223
 111237796.462 9  86678814.61047                  21167841.825    21167843.063
 110230851.191 9  85894172.96648                  20976230.405    20976231.430
 116962404.354 9  91139534.75747                  22257199.373    22257200.580
 125405225.486 7  97718354.18743                  23863817.727    23863820.131
 120891968.457 8  94201534.78346                  23004973.182    23004975.554
 116130880.982 8  90491603.79947                  22098971.282    22098970.161
 117197440.677 8  91322685.43646                  22301923.442    22301925.280
 128008758.513 7  99747095.48644                  24359253.280    24359251.414
 17  9  6  1  2 30.0000000  0 10G10G11G13G15G17G18G19G24G28G30
 127574295.104 6  99408537.92445                  24276580.766    24276579.350
 127810679.729 6  99592734.95344                  24321564.058    24321565.375
 111309452.437 9  86734650.38147                  21181477.506    21181478.783
 110251129.610 9  85909974.32948                  20980089.198    20980090.344
 116911290.511 9  91099705.79947                  22247472.735    22247473.862
 125409720.561 7  97721856.87344                  23864673.005    23864675.557
 120789460.159 8  94121658.18946                  22985466.060    22985468.778
 116048302.096 9  90427256.63747                  22083257.048    22083255.868
 117271654.081 8  91380514.04946                  22316045.765    22316047.615
 128110916.859 7  99826699.39244                  24378693.634    24378691.727
 17  9  6  1  3  0.0000000  0 10G10G11G13G15G17G18G19G24G28G30
 127532714.827 7  99376137.71645                  24268668.381    24268667.053
 127823046.472 6  99602371.39644                  24323917.284    24323918.789
 111381577.713 9  86790851.87047                  21195202.522    21195203.838
 110271989.892 9  85926229.09848                  20984058.824    20984059.947
 116860675.375 9  91060265.45047                  22237841.037    22237842.110
 125414712.826 7  97725746.95344                  23865623.048    23865625.423
 120687271.823 8  94042030.94347                  22966020.372    22966022.966
 115965973.243 8  90363104.29147                  22067590.466    22067589.244
 117346113.815 8  91438534.62546                  22330215.028    22330216.903
 128213166.398 7  99906374.32344                  24398151.127    24398149.346
 17  9  6  1  3 30.0000000  0 10G10G11G13G15G17G18G19G24G28G30
 127491680.599 6  99344162.97945                  24260860.068    24260858.541
 127836023.568 6  99612483.39144                  24326386.653    24326388.284
 111454173.072 9  86847419.64047                  21209016.987    21209018.353
 110293434.153 9  85942938.91348                  20988139.532    20988140.720
 116810563.615 9  91021217.33247                  22228305.118    22228306.201
 125420204.890 7  97730026.46044                  23866668.399    23866670.528
 120585409.298 8  93962657.56546                  22946636.605    22946639.190
 115883898.885 8  90299150.24747                  22051972.007    22051970.983
 117420820.807 8  91496747.86345                  22344431.249    22344433.165
 128315508.906 7  99986121.71845                  24417626.507    24417624.240
 17  9  6  1  4  0.0000000  0 10G10G11G13G15G17G18G19G24G28G30
 127451191.423 6  99312612.96845                  24253155.217    24253153.606
 127849608.291 6  99623068.90943                  24328971.973    24328973.204
 111527234.230 9  86904350.36147                  21222920.120    21222921.494
 110315459.519 9  85960101.52748                  20992330.802    20992332.020
 116760954.320 9  90982560.75647                  22218864.589    22218865.889
 125426193.725 7  97734693.08244                  23867808.433    23867810.106
 120483873.279 8  93883538.60546                  22927314.902    22927317.493
 115802077.875 8  90235393.62647                  22036402.103    22036400.938
 117495771.010 8  91555150.61046                  22358693.904    22358695.768
 128417940.884 7 100065938.82145                  24437118.598    24437116.456
 17  9  6  1  4 30.0000000  0 10G10G11G13G15G17G18G19G24G28G30
 127411251.303 7  99281490.80644                  24245554.509    24245553.260
 127863803.082 6  99634129.77444                  24331672.394    24331674.467
 111600762.446 9  86961645.01047                  21236912.173    21236913.502
 110338068.031 9  85977718.55448                  20996633.106    20996634.277
 116711852.190 9  90944299.38447                  22209520.833    22209522.089
 125432681.813 7  97739748.70744                  23869043.289    23869044.908
 120382669.868 8  93804678.80646                  22908056.625    22908059.249
 115720514.303 8  90171837.62147                  22020881.192    22020879.871
 117570965.036 8  91613743.34145                  22373002.793    22373004.721
 128520464.025 7 100145826.97544                  24456628.246    24456625.688
 17  9  6  1  5  0.0000000  0 10G10G11G13G15G17G18G19G24G28G30
 127371859.897 7  99250796.17445                  24238058.605    24238057.491
 127878606.068 6  99645664.56044                  24334489.986    24334491.328
 111674754.032 9  87019300.77747                  21250992.216    21250993.662
 110361257.590 9  85995788.32847                  21001045.838    21001047.073
 116663256.900 9  90906432.93547                  22200273.322    22200274.736
 125439666.603 7  97745191.41643                  23870372.477    23870374.135
 120281800.694 8  93726079.46346                  22888861.901    22888864.477
 115639207.932 8  90108482.00247                  22005409.011    22005407.813
 117646399.473 8  91672523.44446                  22387357.449    22387359.536
 128623075.629 7 100225784.05145                  24476154.398    24476151.950
 17  9  6  1  5 30.0000000  0 10G10G11G13G15G17G18G19G24G28G30
 127333017.839 7  99220529.67545                  24230667.117    24230666.212
 127894016.460 6  99657672.64144                  24337422.093    24337423.774
 111749206.544 9  87077315.71347                  21265160.216    21265161.498
 110385026.556 9  86014309.59547                  21005568.981    21005570.127
 116615169.949 9  90868962.57146                  22191122.714    22191124.088
 125447146.973 7  97751020.26844                  23871796.080    23871797.448
 120181268.466 8  93647742.68946                  22869731.261    22869733.610
 115558159.820 9  90045327.64747                  21989986.126    21989984.852
 117722072.129 8  91731489.14845                  22401757.308    22401759.493
 128725773.883 7 100305808.66644                  24495697.005    24495694.867
 17  9  6  1  6  0.0000000  0 10G10G11G13G15G17G18G19G24G28G30
 127294727.685 7  99190693.17945                  24223380.450    24223379.772
 127910034.412 6  99670154.15343                  24340470.381    24340472.294
 111824119.310 9  87135689.28047                  21279415.454    21279416.965
 110409375.804 9  86033283.03247                  21010202.427    21010203.617
 116567594.262 9  90831890.62147                  22182069.274    22182070.831
 125455123.849 7  97757236.00644                  23873313.492    23873315.486
 120081077.588 8  93569671.89146                  22850665.551    22850668.039
 115477372.569 9  89982376.54547                  21974612.717    21974611.538
 117797981.962 8  91790639.65945                  22416202.299    22416204.641
 128828558.955 7 100385900.89344                  24515256.467    24515254.317
 17  9  6  1  6 30.0000000  0 10G10G11G13G15G17G18G19G24G28G30
 127256991.256 7  99161288.19245                  24216199.643    24216198.721
 127926660.900 6  99683109.86044                  24343634.472    24343635.929
 111899491.279 9  87194420.65147                  21293758.384    21293759.768
 110434305.278 9  86052708.58747                  21014946.300    21014947.509
 116520531.749 9  90795218.55047                  22173113.610    22173115.132
 125463596.642 7  97763838.17644                  23874925.375    23874927.597
 119981231.624 8  93491869.85547                  22831665.316    22831667.889
 115396848.040 9  89919630.16547                  21959289.380    21959288.235
 117874127.885 8  91849974.15345                  22430692.297    22430694.800
 128931430.416 7 100466060.49344                  24534832.038    24534830.057
 17  9  6  1  7  0.0000000  0 10G10G11G13G15G17G18G19G24G28G30
 127219807.904 7  99132314.15945                  24209124.033    24209122.875
 127943893.154 6  99696537.56143                  24346912.677    24346915.059
 111975318.406 9  87253506.66247                  21308187.784    21308189.191
 110459812.163 9  86072584.07148                  21019800.127    21019801.337
 116473981.758 9  90758945.84547                  22164255.544    22164257.035
 125472563.408 7  97770825.27944                  23876631.803    23876633.773
 119881732.671 8  93414338.23246                  22812731.409    22812733.909
 115316586.164 9  89857088.45047                  21944016.192    21944014.920
 117950506.178 8  91909489.70746                  22445226.832    22445229.148
 129034385.290 7 100546285.03145                  24554423.842    24554421.843
 17  9  6  1  7 30.0000000  0 10G10G11G13G15G17G18G19G24G28G30
 127183181.488 7  99103774.08645                  24202154.477    24202153.267
 127961733.470 6  99710439.10143                  24350308.033    24350309.923
 112051601.588 9  87312948.05947                  21322704.087    21322705.415
 110485898.396 9  86092910.98947                  21024764.237    21024765.370
 116427949.442 9  90723076.51847                  22155495.896    22155497.323
 125482025.853 7  97778198.59044                  23878432.457    23878434.380
 119782585.724 8  93337080.90146                  22793864.273    22793866.724
 115236590.676 9  89794754.32747                  21928793.577    21928792.297
 118027117.703 8  91969186.99845                  22459805.513    22459807.818
 129137425.044 7 100626575.76144                  24574031.361    24574029.680
 17  9  6  1  8  0.0000000  0  9G10G11G13G15G17G18G19G24G28
 127147107.418 7  99075664.43945                  24195289.585    24195288.540
 127980175.614 6  99724809.60143                  24353817.357    24353819.661
 112128333.177 9  87372738.88847                  21337305.657    21337307.005
 110512557.695 9  86113684.45848                  21029837.452    21029838.460
 116382429.944 9  90687606.81147                  22146833.739    22146835.143
 125491977.534 7  97785953.13544                  23880326.455    23880328.075
 119683788.809 8  93260096.28747                  22775063.882    22775066.379
 115156857.173 9  89732624.32447                  21913620.735    21913619.533
 118103954.931 8  92029060.16445                  22474427.052    22474429.516
 17  9  6  1  8 30.0000000  0  9G10G11G13G15G17G18G19G24G28
 127111595.233 6  99047992.60845                  24188531.590    24188530.784
 127999227.359 6  99739655.11143                  24357442.637    24357445.064
 112205519.566 9  87432884.08947                  21351993.836    21351995.086
 110539797.426 9  86134910.20448                  21035021.118    21035021.991
 116337433.258 9  90652544.47947                  22138271.206    22138272.345
 125502426.436 7  97794095.12645                  23882314.515    23882316.494
 119585353.363 8  93183393.35646                  22756332.022    22756334.695
 115077395.416 9  89670706.07947                  21898499.820    21898498.440
 118181024.616 8  92089114.45645                  22489092.802    22489095.396
 17  9  6  1  9  0.0000000  0  9G10G11G13G15G17G18G19G24G28
 127076640.942 7  99020755.50345                  24181880.293    24181878.865
 128018883.242 6  99754971.39742                  24361183.053    24361185.264
 112283153.943 9  87493378.37647                  21366767.151    21366768.429
 110567611.757 9  86156583.69647                  21040314.067    21040314.882
 116292955.769 9  90617886.71447                  22129807.387    22129808.441
 125513366.751 7  97802620.05644                  23884396.848    23884398.629
 119487277.429 8  93106970.57446                  22737668.782    22737671.489
 114998201.956 9  89608996.90547                  21883429.786    21883428.396
 118258319.558 8  92149344.29345                  22503801.680    22503804.110
 17  9  6  1  9 30.0000000  0  9G10G11G13G15G17G18G19G24G28
 127042245.821 7  98993954.10344                  24175335.239    24175333.756
 128039142.655 6  99770757.97944                  24365038.512    24365040.526
 112361234.411 9  87554220.27347                  21381625.501    21381626.660
 110595999.984 9  86178704.38947                  21045716.128    21045716.970
 116248999.111 9  90583634.78947                  22121442.733    22121443.618
 125524797.607 7  97811527.23444                  23886572.224    23886574.276
 119389564.331 8  93030830.52346                  22719074.749    22719077.233
 114919278.323 9  89547497.98047                  21868411.128    21868409.704
 118335837.833 8  92209748.13745                  22518552.939    22518555.431
 17  9  6  1 10  0.0000000  0 10G10G11G12G13G15G17G18G19G24G28
 127008413.573 7  98967591.31244                  24168897.146    24168895.687
 128060007.576 6  99787016.32443                  24369008.897    24369010.845
 128574178.19018 100187660.47055                  24466850.518    24466851.941
 112439761.122 9  87615409.89346                  21396568.646    21396569.749
 110624963.936 9  86201273.67848                  21051227.810    21051228.621
 116205567.490 9  90549791.98747                  22113177.906    22113178.832
 125536721.312 7  97820818.41143                  23888840.835    23888843.532
 119292220.071 8  92954977.86347                  22700550.732    22700553.207
 114840628.793 9  89486212.64147                  21853444.615    21853443.220
 118413580.416 8  92270326.77146                  22533346.700    22533349.329
 17  9  6  1 10 30.0000000  0 10G10G11G12G13G15G17G18G19G24G28
 126975144.636 7  98941667.47644                  24162565.929    24162564.873
 128081476.928 6  99803745.62144                  24373094.637    24373096.351
 128458558.478 7 100097567.21344                  24444848.916    24444849.640
 112518731.888 9  87676945.51547                  21411596.274    21411597.433
 110654502.173 9  86224290.45648                  21056848.650    21056849.584
 116162661.411 9  90516358.68747                  22105013.092    22105014.011
 125549135.713 7  97830491.98543                  23891203.297    23891205.812
 119195247.080 8  92879414.51947                  22682097.376    22682099.729
 114762253.899 9  89425141.31347                  21838530.373    21838528.938
 118491544.951 8  92331078.35745                  22548182.965    22548185.439
 17  9  6  1 11  0.0000000  0 10G10G11G12G13G15G17G18G19G24G28
 126942437.939 6  98916181.73444                  24156341.692    24156341.031
 128103548.003 6  99820943.86544                  24377294.509    24377296.272
 128343044.748 8 100007556.52344                  24422867.409    24422868.287
 112598142.691 9  87738824.06947                  21426707.679    21426708.813
 110684611.549 9  86247752.28448                  21062578.314    21062579.274
 116120280.698 9  90483334.78247                  22096948.439    22096949.295
 125562038.420 7  97840546.06444                  23893658.224    23893660.973
 119098646.335 8  92804141.26247                  22663714.901    22663717.159
 114684153.078 8  89364283.53447                  21823668.274    21823666.840
 118569727.465 8  92391999.78646                  22563060.890    22563063.160
 17  9  6  1 11 30.0000000  0 10G10G11G12G13G15G17G18G19G24G28
 126910297.559 6  98891137.29445                  24150226.103    24150224.747
 128126223.187 6  99838612.81943                  24381609.548    24381611.453
 128227641.180 7  99917631.66744                  24400906.734    24400907.450
 112677994.571 9  87801046.34247                  21441902.948    21441904.192
 110715294.358 9  86271660.95848                  21068417.003    21068418.084
 116078429.617 9  90450723.57247                  22088984.357    22088985.263
 125575431.594 7  97850982.27744                  23896207.045    23896209.366
 119002423.977 8  92729162.84947                  22645404.247    22645406.600
 114606330.465 9  89303642.54647                  21808859.164    21808857.629
 118648129.330 8  92453092.15546                  22577980.133    22577982.675
 17  9  6  1 12  0.0000000  0 10G10G11G12G13G15G17G18G19G24G28
 126878720.572 7  98866531.85345                  24144217.417    24144216.084
 128149497.451 6  99856748.62643                  24386038.436    24386040.547
 128112345.639 7  99827791.00345                  24378967.024    24378967.433
 112758281.355 9  87863607.46247                  21457181.043    21457182.300
 110746545.552 9  86296012.54347                  21074363.978    21074365.030
 116037105.773 9  90418523.21447                  22081120.571    22081121.633
 125589310.345 7  97861796.90144                  23898848.163    23898850.184
 118906579.462 8  92654478.85047                  22627165.850    22627168.090
 114528783.842 9  89243216.61647                  21794102.420    21794101.022
 118726744.568 8  92514350.78745                  22592939.948    22592942.539
 17  9  6  1 12 30.0000000  0 10G10G11G12G13G15G17G18G19G24G28
 126847712.295 7  98842369.53944                  24138316.138    24138315.542
 128173375.053 6  99875354.53643                  24390582.090    24390584.102
 127997163.822 7  99738038.93944                  24357048.646    24357049.133
 112839005.564 9  87926509.43547                  21472542.255    21472543.678
 110778368.470 9  86320809.60747                  21080419.682    21080420.795
 115996314.622 9  90386737.90647                  22073358.274    22073359.377
 125603678.332 7  97872992.73344                  23901582.192    23901584.202
 118811120.339 8  92580095.16447                  22609000.540    22609002.698
 114451519.100 8  89183010.32547                  21779399.391    21779397.964
 118805576.208 8  92575778.03046                  22607941.116    22607943.719
 17  9  6  1 13  0.0000000  0 10G10G11G12G13G15G17G18G19G24G28
 126817268.625 7  98818647.17744                  24132522.856    24132522.424
 128197849.730 6  99894425.68544                  24395239.375    24395241.519
 127882092.431 7  99648372.95744                  24335151.511    24335151.740
 112920159.940 9  87989746.59146                  21487985.430    21487986.836
 110810757.165 9  86346047.54247                  21086583.066    21086584.206
 115956052.574 9  90355364.91847                  22065696.853    22065697.793
 125618529.781 7  97884565.30244                  23904408.431    23904410.660
 118716044.744 8  92506010.30247                  22590908.146    22590910.450
 114374532.449 9  89123020.71747                  21764749.232    21764747.850
 118884616.846 8  92637368.14045                  22622982.157    22622984.765
 17  9  6  1 13 30.0000000  0 10G10G11G12G13G15G17G18G19G24G28
 126787398.046 7  98795371.42944                  24126838.788    24126837.974
 128222928.307 6  99913967.41844                  24400011.948    24400013.754
 127767140.496 8  99558800.04145                  24313276.791    24313277.019
 113001750.143 9  88053323.34346                  21503511.538    21503513.036
 110843718.494 9  86371731.68047                  21092855.441    21092856.574
 115916328.557 9  90324411.14447                  22058137.587    22058138.624
 125633871.302 7  97896519.76643                  23907327.879    23907329.965
 118621363.333 8  92432232.62947                  22572891.083    22572893.176
 114297833.148 8  89063255.04247                  21750153.813    21750152.465
 118963872.336 8  92699125.66645                  22638064.151    22638066.607
 17  9  6  1 14  0.0000000  0 10G10G11G12G13G15G17G18G19G24G28
 126758093.473 7  98772536.67045                  24121262.581    24121261.433
 128248601.781 6  99933972.71444                  24404897.301    24404899.094
 127652301.775 8  99469315.33544                  24291423.292    24291424.174
 113083765.943 9  88117231.71447                  21519118.576    21519120.136
 110877242.999 9  86397854.66148                  21099235.008    21099236.105
 115877135.876 9  90293871.43347                  22050679.516    22050680.499
 125649694.072 7  97908849.15044                  23910338.299    23910340.730
 118527070.919 8  92358758.03747                  22554947.677    22554949.939
 114221414.362 9  89003707.95347                  21735611.798    21735610.340
 119043332.647 8  92761042.78345                  22653184.722    22653187.372
 17  9  6  1 14 30.0000000  0 10G10G11G12G13G15G17G18G19G24G28
 126729360.025 6  98750146.97245                  24115794.956    24115793.224
 128274873.867 6  99954444.45244                  24409896.762    24409898.731
 127537582.067 8  99379923.37644                  24269592.664    24269593.591
 113166209.685 9  88181473.55346                  21534807.151    21534808.766
 110911333.931 9  86424419.01348                  21105722.302    21105723.412
 115838480.081 9  90263750.04347                  22043323.595    22043324.551
 125666000.825 7  97921555.73744                  23913441.461    23913443.927
 118433175.162 8  92285592.55547                  22537079.995    22537082.152
 114145281.661 9  88944383.76547                  21721124.096    21721122.757
 119123000.534 8  92823121.65545                  22668345.208    22668347.786
 17  9  6  1 15  0.0000000  0 10G10G11G12G13G15G17G18G19G24G28
 126701199.747 7  98728203.90645                  24110436.022    24110434.192
 128301744.799 6  99975382.81943                  24415010.033    24415012.147
 127422984.209 8  99290626.36444                  24247785.689    24247786.350
 113249080.588 9  88246048.26046                  21550576.847    21550578.598
 110945991.904 9  86451425.21847                  21112317.585    21112318.623
 115800363.597 9  90234048.91047                  22036070.245    22036071.255
 125682792.074 7  97934639.84644                  23916636.788    23916639.201
 118339680.298 8  92212739.42347                  22519288.318    22519290.695
 114069437.822 9  88885284.67147                  21706691.547    21706690.231
 119202875.393 8  92885361.79345                  22683544.892    22683547.406
 17  9  6  1 15 30.0000000  0 10G10G11G12G13G15G17G18G19G24G28
 126673610.293 7  98706705.64144                  24105185.911    24105184.391
 128329210.350 6  99996784.53844                  24420236.903    24420238.674
 127308506.585 8  99201423.04445                  24226001.571    24226002.078
 113332373.230 9  88310951.60246                  21566426.944    21566428.655
 110981212.249 9  86478869.63348                  21119019.745    21119020.819
 115762784.715 9  90204766.68547                  22028919.097    22028920.196
 125700063.723 7  97948098.28244                  23919923.948    23919925.940
 118246586.280 8  92140198.65746                  22501573.076    22501575.522
 113993881.107 9  88826409.31347                  21692313.575    21692312.255
 119282952.014 8  92947759.17045                  22698782.946    22698785.511
 17  9  6  1 16  0.0000000  0 10G10G11G12G13G15G17G18G19G24G28
 126646594.012 6  98685653.99945                  24100044.732    24100043.720
 128357271.526 6 100018650.36344                  24425577.249    24425578.639
 127194152.040 8  99112315.62344                  24204240.217    24204241.024
 113416086.841 9  88376182.95946                  21582357.108    21582358.802
 111016995.318 9  86506752.54247                  21125829.082    21125830.105
 115725745.803 9  90175905.20947                  22021870.730    22021871.908
 125717816.567 7  97961931.63644                  23923302.118    23923304.313
 118153897.566 8  92067973.70247                  22483934.883    22483937.381
 113918614.566 9  88767760.07247                  21677990.855    21677989.502
 119363230.198 8  93010313.58245                  22714059.373    22714061.965
 17  9  6  1 16 30.0000000  0 10G10G11G12G13G15G17G18G19G24G28
 126620152.475 7  98665050.19145                  24095012.995    24095011.724
 128385928.055 6 100040980.13642                  24431029.957    24431031.950
 127079923.639 8  99023306.47444                  24182503.388    24182504.159
 113500219.913 9  88441741.14946                  21598367.148    21598368.733
 111053341.045 9  86535073.88447                  21132745.443    21132746.414
 115689248.815 9  90147466.01647                  22014925.627    22014926.726
 125736050.240 7  97976139.72444                  23926771.779    23926774.351
 118061618.361 8  91996067.86747                  22466374.751    22466377.178
 113843640.355 9  88709338.61647                  21663723.677    21663722.402
 119443709.530 8  93073024.74246                  22729374.048    22729376.613
 17  9  6  1 17  0.0000000  0 10G10G11G12G13G15G17G18G19G24G28
 126594285.465 7  98644894.06045                  24090090.677    24090089.461
 128415177.786 6 100063772.09142                  24436595.703    24436598.060
 126965821.654 8  98934395.86944                  24160790.762    24160791.208
 113584769.986 9  88507624.28946                  21614456.591    21614458.107
 111090247.211 9  86563831.91347                  21139768.455    21139769.382
 115653294.183 9  90119449.42347                  22008083.719    22008084.787
 125754762.608 7  97990720.78844                  23930332.601    23930335.042
 117969750.704 8  91924482.71347                  22448892.818    22448895.374
 113768958.850 9  88651145.23547                  21649512.374    21649510.973
 119524386.496 8  93135889.93145                  22744726.491    22744728.900
 17  9  6  1 17 30.0000000  0 10G10G11G12G13G15G17G18G19G24G28
 126568995.639 7  98625187.72544                  24085278.212    24085277.163
 128445021.520 6 100087026.94645                  24442275.318    24442277.074
 126851849.544 8  98845586.44444                  24139102.532    24139103.055
 113669736.560 9  88573831.97846                  21630625.177    21630626.667
 111127714.534 9  86593027.20548                  21146898.312    21146899.182
 115617885.182 9  90091858.01847                  22001345.571    22001346.732
 125773954.664 7  98005675.63444                  23933985.010    23933987.008
 117878299.491 8  91853222.06646                  22431490.462    22431492.692
 113694573.438 9  88593182.57747                  21635357.117    21635355.935
 119605261.401 8  93198909.32945                  22760116.510    22760118.840
 17  9  6  1 18  0.0000000  0 10G10G11G12G13G15G17G18G19G24G28
 126544281.793 6  98605930.17644                  24080575.429    24080574.346
 128475456.636 6 100110742.60144                  24448067.129    24448068.708
 126738007.172 8  98756878.12844                  24117438.758    24117439.429
 113755115.629 9  88640361.07746                  21646872.408    21646873.817
 111165739.855 9  86622657.30047                  21154134.276    21154135.148
 115583020.568 9  90064690.80547                  21994711.182    21994712.163
 125793623.395 7  98021001.92144                  23937727.815    23937729.820
 117787265.729 8  91782286.68247                  22414166.935    22414169.567
 113620483.670 9  88535450.28347                  21621258.309    21621257.210
 119686330.589 8  93262080.11045                  22775543.574    22775545.740
 17  9  6  1 18 30.0000000  0 10G10G11G12G13G15G17G18G19G24G28
 126520144.717 6  98587122.07845                  24075982.269    24075980.904
 128506482.412 6 100134918.52744                  24453970.596    24453972.758
 126624296.071 8  98668272.08644                  24095799.792    24095800.967
 113840905.116 9  88707209.98546                  21663197.632    21663198.990
 111204322.187 9  86652721.44247                  21161476.232    21161477.086
 115548701.807 9  90037948.92347                  21988180.541    21988181.478
 125813767.951 7  98036699.01144                  23941561.296    23941563.130
 117696652.773 8  91711679.21947                  22396923.978    22396926.376
 113546691.542 9  88477949.92947                  21607216.158    21607214.999
 119767592.480 8  93325401.04845                  22791007.255    22791009.394
 17  9  6  1 19  0.0000000  0 10G10G11G12G13G15G17G18G19G24G28
 126496586.663 6  98568765.12745                  24071499.070    24071498.027
 128538099.313 6 100159555.03444                  24459987.059    24459989.362
 126510719.580 7  98579770.92744                  24074187.012    24074187.901
 113927104.292 9  88774378.15246                  21679600.838    21679602.136
 111243461.592 9  86683219.66547                  21168924.224    21168925.067
 115514931.626 9  90011634.51947                  21981754.165    21981755.131
 125834388.676 6  98052767.08443                  23945485.139    23945486.981
 117606465.215 8  91641403.23047                  22379761.856    22379764.165
 113473199.511 9  88420683.41647                  21593231.198    21593229.961
 119849046.685 8  93388871.85345                  22806507.329    22806509.632
 17  9  6  1 19 30.0000000  0  9G10G12G13G15G17G18G19G24G28
 126473608.558 6  98550860.11245                  24067126.871    24067125.492
 126397279.536 8  98491376.12244                  24052600.098    24052600.878
 114013710.918 9  88841863.78646                  21696081.641    21696082.858
 111283157.423 9  86714151.45848                  21176478.107    21176478.980
 115481711.271 9  89985748.55047                  21975432.448    21975433.478
 125855484.467 7  98069205.36644                  23949499.894    23949501.067
 117516706.264 8  91571461.21247                  22362681.133    22362683.604
 113400009.260 9  88363652.06347                  21579303.574    21579302.259
 119930691.845 8  93452491.45645                  22822043.894    22822046.106
 17  9  6  1 20  0.0000000  0  9G10G12G13G15G17G18G19G24G28
 126451209.161 6  98533406.03445                  24062864.361    24062862.803
 126283975.809 7  98403087.50745                  24031039.063    24031039.836
 114100721.467 9  88909664.20346                  21712639.317    21712640.421
 111323406.363 9  86745514.24048                  21184137.288    21184138.111
 115449040.102 9  89960290.51447                  21969215.297    21969216.344
 125877052.561 6  98086011.70344                  23953604.440    23953605.362
 117427377.341 8  91501854.27047                  22345682.369    22345684.941
 113327120.738 9  88306855.81948                  21565433.374    21565431.999
 120012524.517 8  93516257.16845                  22837616.345    22837618.363
 17  9  6  1 20 30.0000000  0  9G10G12G13G15G17G18G19G24G28
 126429390.203 7  98516404.25744                  24058712.270    24058710.692
 126170810.329 8  98314906.63944                  24009504.425    24009505.030
 114188134.755 9  88977778.42246                  21729273.650    21729274.617
 111364208.424 9  86777308.03648                  21191901.649    21191902.497
 115416920.296 9  89935262.11347                  21963103.015    21963104.189
 125899093.150 6  98103186.16744                  23957798.520    23957799.630
 117338482.651 8  91432585.72146                  22328766.343    22328768.850
 113254536.203 9  88250296.42947                  21551620.971    21551619.711
 120094543.877 8  93580168.36345                  22853224.188    22853226.045
 17  9  6  1 21  0.0000000  0  9G10G12G13G15G17G18G19G24G28
 126408149.227 6  98499852.84445                  24054669.917    24054668.907
 126057782.527 8  98226833.07045                  23987996.150    23987996.525
 114275945.469 9  89046202.33946                  21745983.500    21745984.541
 111405559.204 9  86809529.40547                  21199770.513    21199771.283
 115385349.681 9  89910661.65447                  21957095.156    21957096.489
 125921601.824 6  98120725.39544                  23962081.558    23962082.966
 117250021.701 8  91363655.11746                  22311932.663    22311935.321
 113182254.253 9  88193972.84047                  21537866.053    21537864.913
 120176744.999 8  93644221.19445                  22868866.483    22868868.393
 17  9  6  1 21 30.0000000  0 10G01G10G12G13G15G17G18G19G24G28
 128797419.35517 100361633.68353                  24509336.760    24509334.767
 126387494.492 6  98483758.22345                  24050739.691    24050738.429
 125944901.661 8  98138873.96444                  23966515.310    23966516.034
 114364159.124 9  89114940.19946                  21762769.995    21762771.047
 111447465.180 9  86842183.39648                  21207744.982    21207745.719
 115354337.216 9  89886496.13247                  21951193.635    21951195.007
 125944585.077 6  98138634.43044                  23966455.020    23966456.064
 117162005.388 8  91295071.00147                  22295183.783    22295186.367
 113110284.111 9  88137892.21847                  21524170.539    21524169.462
 120259134.076 8  93708420.44345                  22884544.771    22884546.543
 17  9  6  1 22  0.0000000  0 10G01G10G12G13G15G17G18G19G24G28
 128766287.469 7 100337375.04045                  24503411.429    24503410.310
 126367414.505 7  98468111.51245                  24046918.559    24046917.293
 125832157.000 8  98051020.99645                  23945060.772    23945061.593
 114452761.367 9  89183980.87046                  21779630.539    21779631.547
 111489912.884 9  86875259.52148                  21215822.563    21215823.201
 115323871.460 9  89862756.60247                  21945396.230    21945397.483
 125968029.754 7  98156903.00044                  23970916.323    23970917.634
 117074424.745 8  91226826.36246                  22278517.516    22278520.373
 113038614.762 9  88082045.97248                  21510532.407    21510531.221
 120341697.316 8  93772755.43545                  22900255.933    22900257.781
 17  9  6  1 22 30.0000000  0 10G01G10G12G13G15G17G18G19G24G28
 128735718.450 7 100313555.02744                  24497595.453    24497593.100
 126347921.886 7  98452922.42445                  24043209.197    24043208.138
 125719562.287 8  97963284.87344                  23923634.981    23923635.490
 114541762.257 9  89253332.17246                  21796566.866    21796567.913
 111532913.069 9  86908766.12847                  21224005.264    21224005.822
 115293965.769 9  89839453.48947                  21939705.357    21939706.620
 125991946.954 7  98175539.77444                  23975467.629    23975469.080
 116987294.900 8  91158932.99147                  22261937.246    22261940.085
 112967259.745 9  88026444.65148                  21496953.981    21496952.848
 120424445.031 8  93837234.15645                  22916002.326    22916004.058
 17  9  6  1 23  0.0000000  0 10G01G10G12G13G15G17G18G19G24G28
 128705711.236 7 100290172.80144                  24491884.916    24491882.959
 126329014.468 6  98438189.36844                  24039611.029    24039610.075
 125607116.297 8  97875664.63344                  23902236.819    23902237.831
 114631156.855 9  89322990.25746                  21813578.272    21813579.115
 111576461.682 9  86942700.09947                  21232292.279    21232292.848
 115264618.360 9  89816585.39647                  21934120.689    21934121.976
 126016332.376 7  98194541.41243                  23980108.061    23980109.626
 116900616.358 8  91091391.29047                  22245442.919    22245445.653
 112896218.119 9  87971087.54747                  21483435.280    21483434.153
 120507372.900 8  93901853.27845                  22931783.121    22931784.701
 17  9  6  1 23 30.0000000  0 10G01G10G12G13G15G17G18G19G24G28
 128676259.506 7 100267223.39044                  24486280.008    24486278.630
 126310685.084 6  98423906.70945                  24036122.928    24036122.002
 125494813.487 8  97788155.96945                  23880866.691    23880867.519
 114720935.004 9  89392947.21746                  21830662.553    21830663.365
 111620549.748 9  86977054.42248                  21240681.986    21240682.569
 115235822.389 9  89794146.99247                  21928641.078    21928642.243
 126041177.346 7  98213901.12444                  23984835.969    23984837.830
 116814384.174 8  91024197.40247                  22229033.523    22229036.196
 112825483.934 9  87915969.99748                  21469974.958    21469973.885
 120590471.342 8  93966605.32045                  22947596.063    22947597.898
 17  9  6  1 24  0.0000000  0 10G01G10G12G13G15G17G18G19G24G28
 128647373.830 7 100244715.03944                  24480783.216    24480781.845
 126292943.154 6  98410081.83445                  24032746.897    24032745.962
 125382664.223 8  97700766.95445                  23859525.203    23859526.104
 114811103.826 9  89463208.60946                  21847821.064    21847821.909
 111665185.007 9  87011835.11747                  21249175.810    21249176.371
 115207587.988 9  89772146.18247                  21923268.309    21923269.338
 126066489.481 7  98233624.86544                  23989652.731    23989654.747
 116728610.385 8  90957360.71347                  22212711.329    22212713.975
 112755067.948 9  87861100.39948                  21456575.218    21456574.205
 120673747.905 8  94031496.11145                  22963443.400    22963444.877
 17  9  6  1 24 30.0000000  0 10G01G10G12G13G15G17G18G19G24G28
 128619051.661 7 100222645.85844                  24475393.964    24475392.161
 126275785.348 6  98396712.11344                  24029481.783    24029480.993
 125270665.956 8  97613495.58945                  23838212.652    23838213.483
 114901657.099 9  89533769.56246                  21865052.861    21865053.678
 111710362.084 9  87047038.00047                  21257772.752    21257773.318
 115179912.043 9  89750580.51147                  21918001.675    21918002.822
 126092263.708 7  98253708.67844                  23994557.327    23994559.241
 116643293.992 8  90890880.44147                  22196475.984    22196478.734
 112684966.784 9  87806476.11348                  21443235.417    21443234.438
 120757197.095 8  94096521.45645                  22979323.185    22979324.724
 17  9  6  1 25  0.0000000  0 10G01G10G12G13G15G17G18G19G24G28
 128591294.878 7 100201017.16144                  24470112.221    24470110.226
 126259212.364 7  98383798.11044                  24026328.235    24026327.105
 125158821.327 8  97526343.95344                  23816929.454    23816930.289
 114992593.090 8  89604628.74746                  21882357.253    21882358.186
 111756080.002 9  87082662.32147                  21266472.598    21266473.244
 115152795.867 9  89729451.04147                  21912841.536    21912842.815
 126118499.196 7  98274151.87344                  23999549.878    23999551.706
 116558438.555 8  90824759.33047                  22180328.617    22180331.221
 112615182.763 9  87752098.94948                  21429955.989    21429954.986
 120840817.408 8  94161680.14045                  22995235.601    22995237.218
 17  9  6  1 25 30.0000000  0 10G01G10G12G13G15G17G18G19G24G28
 128564107.160 7 100179831.92244                  24464938.859    24464936.712
 126243227.060 6  98371342.03145                  24023286.417    24023285.143
 125047133.745 8  97439314.69945                  23795676.182    23795676.783
 115083911.792 9  89675786.14646                  21899734.723    21899735.628
 111802339.467 9  87118708.63947                  21275275.408    21275276.199
 115126242.879 9  89708760.41147                  21907788.742    21907789.944
 126145196.853 7  98294955.27244                  24004630.220    24004631.852
 116474049.260 8  90759001.47747                  22164269.687    22164272.437
 112545719.752 9  87697971.93048                  21416737.481    21416736.639
 120924609.451 8  94226972.62445                  23011180.662    23011182.302
 17  9  6  1 26  0.0000000  0 10G01G10G12G13G15G17G18G19G24G28
 128537486.701 7 100159088.74244                  24459872.934    24459871.114
 126227826.568 7  98359341.65245                  24020355.962    24020354.675
 124935601.897 8  97352406.77745                  23774452.174    23774453.026
 115175607.544 9  89747237.34046                  21917183.949    21917184.607
 111849136.014 9  87155173.46247                  21284180.459    21284181.316
 115100250.442 9  89688506.56647                  21902842.691    21902843.777
 126172352.537 7  98316115.50944                  24009797.819    24009799.454
 116390126.076 8  90693606.81047                  22148299.611    22148302.362
 112476576.051 9  87644093.72948                  21403579.874    21403578.982
 121008568.480 8  94292395.21445                  23027157.366    23027159.096
 17  9  6  1 26 30.0000000  0 10G01G10G12G13G15G17G18G19G24G28
 128511434.495 7 100138788.33345                  24454915.176    24454913.378
 126213011.000 6  98347797.05445                  24017536.951    24017535.301
 124824227.082 8  97265621.23545                  23753258.472    23753259.139
 115267678.062 8  89818980.57446                  21934704.364    21934705.127
 111896467.507 9  87192055.12947                  21293187.248    21293188.277
 115074819.039 9  89668689.89747                  21898003.311    21898004.336
 126199964.791 7  98337631.52744                  24015052.212    24015054.022
 116306671.507 8  90628577.30547                  22132419.032    22132421.462
 112407752.824 9  87590465.23948                  21390483.157    21390482.298
 121092692.536 8  94357946.42345                  23043165.641    23043167.580
 17  9  6  1 27  0.0000000  0 10G01G10G12G13G15G17G18G19G24G28
 128485956.453 7 100118935.27944                  24450066.438    24450064.979
 126198785.066 6  98336711.89944                  24014829.629    24014828.018
 124713014.636 8  97178962.21345                  23732095.560    23732096.055
 115360125.370 8  89891017.39746                  21952296.645    21952297.241
 111944337.602 9  87229356.45447                  21302296.620    21302297.712
 115049954.374 9  89649314.84647                  21893271.688    21893272.795
 126228036.075 6  98359505.25744                  24020394.138    24020395.887
 116223692.881 8  90563918.67147                  22116628.580    22116631.131
 112339255.987 9  87537091.08847                  21377448.667    21377447.689
 121176984.378 8  94423628.37845                  23059205.662    23059207.909
 17  9  6  1 27 30.0000000  0 10G01G10G12G13G15G17G18G19G24G28
 128461048.204 7 100099526.25444                  24445326.731    24445325.257
 126185143.651 7  98326082.23345                  24012233.970    24012232.006
 124601962.247 8  97092427.89845                  23710962.524    23710963.464
 115452941.869 8  89963341.90746                  21969959.113    21969959.723
 111992738.970 9  87267071.76447                  21311507.076    21311508.270
 115025651.506 9  89630377.54747                  21888647.075    21888648.143
 126256559.967 6  98381731.65245                  24025821.326    24025823.780
 116141187.569 8  90499628.81947                  22100928.510    22100930.916
 112271081.730 9  87483968.28748                  21364475.468    21364474.499
 121261437.086 8  94489435.68345                  23075276.402    23075278.731
 17  9  6  1 28  0.0000000  0 10G01G10G12G13G15G17G18G19G24G28
 128436713.919 7 100080564.46144                  24440696.281    24440694.656
 126172089.823 7  98315910.43645                  24009749.509    24009748.117
 124491073.560 8  97006021.17445                  23689861.356    23689861.989
 115546127.812 8  90035954.30646                  21987691.634    21987692.478
 112041673.152 9  87305202.28247                  21320818.969    21320820.200
 115001913.933 9  89611880.74847                  21884129.906    21884131.063
 126285537.554 7  98404311.58043                  24031335.476    24031337.734
 116059161.515 8  90435712.43247                  22085319.307    22085321.924
 112203234.050 9  87431099.96848                  21351564.515    21351563.438
 121346051.722 8  94555369.16345                  23091378.336    23091380.177
 17  9  6  1 28 30.0000000  0 10G01G10G12G13G15G17G18G19G24G28
 128412954.958 7 100062050.97045                  24436175.312    24436173.274
 126159623.952 6  98306196.74445                  24007377.158    24007375.959
 124380350.164 8  96919743.20344                  23668791.310    23668791.896
 115639681.189 8  90108853.00146                  22005494.332    22005495.129
 112091138.364 9  87343746.57247                  21330231.931    21330233.105
 114978742.663 9  89593825.24147                  21879720.560    21879721.675
 126314967.910 6  98427244.31544                  24036936.318    24036938.109
 115977617.560 9  90372171.71547                  22069802.122    22069804.501
 112135714.783 9  87378487.55348                  21338715.996    21338714.877
 121430826.484 8  94621427.39845                  23107510.623    23107512.355
 17  9  6  1 29  0.0000000  0 10G01G10G12G13G15G17G18G19G24G28
 128389772.319 7 100043986.57944                  24431763.642    24431761.919
 126147746.089 6  98296941.27145                  24005117.190    24005115.474
 124269793.362 8  96833595.10045                  23647753.109    23647753.535
 115733599.441 8  90182036.02146                  22023366.441    22023367.256
 112141133.066 9  87382703.46647                  21339745.725    21339746.798
 114956138.132 9  89576211.33347                  21875418.873    21875420.146
 126344849.450 7  98450528.59444                  24042622.921    24042624.382
 115896558.592 8  90309008.90947                  22054377.013    22054379.468
 112068524.991 9  87326131.87448                  21325930.288    21325929.019
 121515759.927 8  94687609.30545                  23123672.875    23123674.759
 17  9  6  1 29 30.0000000  0 10G01G10G12G13G15G17G18G19G24G28
 128367167.777 7 100026372.68445                  24427462.073    24427460.132
 126136457.016 7  98288144.58045                  24002969.292    24002967.479
 124159405.484 8  96747578.58745                  23626746.800    23626747.385
 115827880.713 9  90255501.90546                  22041307.484    22041308.421
 112191656.295 9  87422072.21147                  21349360.066    21349360.972
 114934101.762 9  89559040.15447                  21871225.381    21871226.770
 126375180.886 7  98474163.47844                  24048394.953    24048396.441
 115815987.761 8  90246226.46047                  22039044.890    22039047.367
 112001667.210 9  87274034.90448                  21313207.752    21313206.383
 121600850.606 8  94753913.72145                  23139864.999    23139867.018
 17  9  6  1 30  0.0000000  0 10G01G10G12G13G15G17G18G19G24G28
 128345140.027 7 100009208.18844                  24423270.519    24423268.224
 126125754.435 7  98279804.89645                  24000932.350    24000930.982
 124049186.014 8  96661693.30245                  23605772.614    23605773.442
 115922520.470 8  90329247.14346                  22059316.985    22059317.845
 112242703.758 9  87461849.45547                  21359074.182    21359074.934
 114912631.436 9  89542310.05247                  21867139.635    21867141.121
 126405958.621 7  98498146.13344                  24054251.732    24054253.422
 115735905.408 9  90183824.64647                  22023805.753    22023808.213
 111935139.588 9  87222195.20348                  21300547.960    21300546.609
 121686094.563 8  94820337.56745                  23156086.228    23156088.410
 17  9  6  1 30 30.0000000  0 10G01G10G12G13G15G17G18G19G24G28
 128323692.154 7  99992495.54545                  24419189.037    24419187.335
 126115640.425 6  98271923.84945                  23999007.695    23999006.374
 123939138.122 8  96575941.73645                  23584831.267    23584832.025
 116017518.362 8  90403271.44846                  22077394.499    22077395.414
 112294275.842 9  87502035.47748                  21368888.088    21368888.733
 114891729.707 9  89526022.98947                  21863162.267    21863163.696
 126437182.993 6  98522476.79545                  24060193.483    24060195.389
 115656316.376 8  90121807.22647                  22008660.465    22008662.900
 111868946.433 9  87170616.11648                  21287951.935    21287950.530
 121771492.151 8  94886881.12545                  23172336.875    23172338.989
 17  9  6  1 31  0.0000000  0 10G01G10G12G13G15G17G18G19G24G28
 128302826.576 7  99976236.64845                  24415218.181    24415216.605
 126106116.374 6  98264502.52545                  23997195.492    23997193.900
 123829264.661 8  96490326.08545                  23563922.936    23563923.794
 116112873.326 8  90477573.97846                  22095539.959    22095540.748
 112346372.378 9  87542630.16647                  21378801.741    21378802.285
 114871398.918 9  89510180.83147                  21859293.382    21859294.839
 126468854.096 7  98547155.55544                  24066219.982    24066222.003
 115577224.780 8  90060177.42547                  21993609.831    21993612.288
 111803089.636 9  87119299.14348                  21275419.836    21275418.398
 121857043.092 8  94953544.19545                  23188616.677    23188618.887
 17  9  6  1 31 30.0000000  0 10G01G10G12G13G15G17G18G19G24G28
 128282543.934 7  99960431.99244                  24411358.705    24411356.768
 126097182.119 7  98257540.77045                  23995495.338    23995493.756
 123719566.828 8  96404847.26445                  23543048.287    23543048.931
 116208582.399 8  90552152.45246                  22113752.967    22113753.614
 112398991.338 9  87583631.94147                  21388814.801    21388815.322
 114851638.888 9  89494783.41547                  21855533.053    21855534.649
 126500969.726 7  98572180.69544                  24072331.141    24072333.422
 115498633.341 9  89998937.37347                  21978654.392    21978656.805
 111737571.058 9  87068245.70348                  21262951.981    21262950.675
 121942745.450 8  95020325.23145                  23204925.632    23204927.598
 17  9  6  1 32  0.0000000  0 10G01G10G12G13G15G17G18G19G24G28
 128262843.793 7  99945081.24644                  24407609.813    24407608.194
 126088836.023 6  98251037.29545                  23993907.115    23993905.743
 123610044.312 8  96319505.08745                  23522206.719    23522207.394
 116304641.552 8  90627003.68746                  22132032.533    22132032.939
 112452129.115 9  87625037.97448                  21398926.592    21398927.076
 114832448.673 9  89479830.01347                  21851881.219    21851882.819
 126533527.100 7  98597550.09744                  24078526.669    24078529.075
 115420542.992 9  89938087.77247                  21963794.222    21963796.711
 111672390.165 9  87017455.41848                  21250548.612    21250547.288
 122028596.057 8  95087221.81945                  23221262.439    23221264.509
 17  9  6  1 32 30.0000000  0 10G01G10G12G13G15G17G18G19G24G28
 128243725.574 7  99930183.89944                  24403971.599    24403970.130
 126081076.559 7  98244990.96445                  23992430.722    23992429.268
 123500697.819 8  96234300.06245                  23501398.621    23501399.425
 116401047.120 8  90702124.88146                  22150377.857    22150378.391
 112505782.678 9  87666845.89048                  21409136.619    21409137.045
 114813827.537 9  89465320.03947                  21848337.666    21848339.346
 126566523.048 7  98623261.21744                  24084805.969    24084808.078
 115342954.800 9  89877629.45447                  21949029.599    21949032.157
 111607546.694 9  86966928.03948                  21238209.295    21238208.004
 122114591.360 8  95154231.13045                  23237626.698    23237628.835
 17  9  6  1 33  0.0000000  0 10G01G10G12G13G15G17G18G19G24G28
 128225197.530 7  99915746.49644                  24400445.700    24400443.867
 126073911.111 6  98239407.50445                  23991067.101    23991065.639
 123391536.096 8  96149239.00645                  23480625.942    23480626.693
 116497803.611 8  90777519.52246                  22168790.129    22168790.545
 112559957.750 9  87709060.19147                  21419445.775    21419446.278
 114795783.112 9  89451259.46147                  21844903.945    21844905.594
 126599963.083 7  98649318.38044                  24091169.348    24091171.446
 115265878.990 9  89817570.39347                  21934362.441    21934365.130
 111543049.606 9  86916670.58148                  21225935.933    21225934.682
 122200737.233 8  95221357.77345                  23254019.839    23254021.850
 17  9  6  1 33 30.0000000  0 10G01G10G12G13G15G17G18G19G24G28
 128207250.970 7  99901762.12445                  24397030.955    24397029.053
 126067329.887 7  98234279.27545                  23989814.765    23989813.333
 123282550.885 8  96064315.49045                  23459886.401    23459887.420
 116594899.447 8  90853178.59846                  22187266.733    22187267.370
 112614642.846 9  87751671.92648                  21429852.064    21429852.607
 114778305.918 9  89437640.87547                  21841578.048    21841579.801
 126633836.000 7  98675712.82444                  24097615.141    24097617.200
 115189308.437 8  89757905.05647                  21919791.411    21919794.268
 111478890.675 9  86866676.61248                  21213726.933    21213725.590
 122287022.443 7  95288592.99245                  23270439.359    23270441.237
 17  9  6  1 34  0.0000000  0 10G01G10G12G13G15G17G18G19G24G28
 128189894.077 7  99888237.27345                  24393728.262    24393726.009
 126061340.161 7  98229611.96744                  23988674.755    23988673.591
 123173750.736 8  95979536.18544                  23439182.566    23439183.505
 116692338.722 8  90929105.26846                  22205808.801    22205809.471
 112669843.377 9  87794685.30347                  21440356.386    21440356.996
 114761404.061 9  89424470.61147                  21838361.734    21838363.484
 126668147.615 7  98702449.16144                  24104144.542    24104146.245
 115113253.274 9  89698641.30747                  21905318.560    21905321.410
 111415078.428 9  86816952.80348                  21201583.902    21201582.529
 122373452.489 8  95355941.07745                  23286886.724    23286888.488
 17  9  6  1 34 30.0000000  0 10G01G10G12G13G15G17G18G19G24G28
 128173126.860 7  99875171.90145                  24390537.191    24390535.243
 126055940.894 7  98225404.74045                  23987646.979    23987646.425
 123065135.977 8  95894901.34245                  23418513.774    23418514.649
 116790118.792 8  91005297.51746                  22224415.597    22224416.370
 112725556.474 9  87838098.07647                  21450958.320    21450958.953
 114745076.929 9  89411748.18647                  21835254.873    21835256.546
 126702895.183 7  98729525.16443                  24110756.374    24110758.773
 115037715.028 9  89639780.35847                  21890944.032    21890947.031
 111351614.092 9  86767500.07848                  21189506.904    21189505.697
 122460024.796 8  95423400.00345                  23303361.012    23303362.591
 17  9  6  1 35  0.0000000  0 10G01G10G12G13G15G17G18G19G24G28
 128156947.152 7  99862564.35844                  24387458.346    24387456.210
 126051128.986 7  98221655.17445                  23986731.327    23986730.612
 122956706.457 8  95810410.80544                  23397880.009    23397881.340
 116888234.184 8  91081751.04046                  22243086.473    22243087.174
 112781777.528 9  87881906.68647                  21461656.891    21461657.553
 114729321.891 9  89399471.52847                  21832256.749    21832258.450
 126738074.050 7  98756937.28044                  24117450.937    24117453.071
 114962693.653 9  89581322.16547                  21876668.058    21876670.891
 111288495.129 9  86718316.46348                  21177495.740    21177494.510
 122546734.903 8  95490966.28344                  23319861.235    23319862.987
 17  9  6  1 35 30.0000000  0 10G01G10G12G13G15G17G18G19G24G28
 128141357.454 7  99850416.54344                  24384491.458    24384490.023
 126046905.855 7  98218364.47045                  23985927.917    23985926.995
 122848464.416 8  95726066.41845                  23377282.439    23377283.255
 116986683.780 8  91158464.98146                  22261820.740    22261821.449
 112838506.257 9  87926110.87547                  21472452.005    21472452.724
 114714140.991 9  89387642.25647                  21829368.027    21829369.633
 126773684.152 7  98784685.39744                  24124227.753    24124229.567
 114888193.103 9  89523269.78647                  21862491.029    21862493.931
 111225725.182 9  86669404.84348                  21165551.030    21165549.733
 122633582.796 8  95558639.95745                  23336387.815    23336389.485
 17  9  6  1 36  0.0000000  0 10G01G10G12G13G15G17G18G19G24G28
 128126356.053 7  99838727.13545                  24381636.701    24381635.446
 126043268.943 7  98215530.53545                  23985235.925    23985234.937
 122740408.946 8  95641867.35545                  23356719.626    23356721.215
 117085462.731 8  91235435.58746                  22280617.786    22280618.578
 112895738.300 9  87970707.26547                  21483342.892    21483343.614
 114699531.966 9  89376258.60947                  21826588.062    21826589.592
 126809721.388 6  98812766.33643                  24131085.367    24131087.005
 114814213.672 9  89465623.50747                  21848413.241    21848416.161
 111163302.726 9  86620763.97248                  21153672.395    21153671.045
 122720564.308 7  95626417.76345                  23352939.924    23352941.576
 17  9  6  1 36 30.0000000  0 10G01G10G12G13G15G17G18G19G24G28
 128111953.261 6  99827504.15045                  24378896.155    24378894.639
 126040227.448 7  98213160.54545                  23984657.012    23984656.083
 122632551.008 8  95557822.26745                  23336195.544    23336196.092
 117184578.382 8  91312668.52645                  22299478.935    22299479.694
 112953481.792 9  88015702.20247                  21494331.061    21494331.883
 114685504.949 9  89365328.46947                  21823918.818    21823920.322
 126846193.607 6  98841186.24344                  24138025.203    24138027.455
 114740767.444 8  89408392.69647                  21834436.984    21834439.791
 111101238.703 9  86572402.40248                  21141861.937    21141860.595
 122807687.226 8  95694305.74845                  23369519.000    23369520.474
 17  9  6  1 37  0.0000000  0 10G01G10G12G13G15G17G18G19G24G28
 128098138.771 7  99816739.62145                  24376267.431    24376265.686
 126037770.111 7  98211245.72344                  23984189.500    23984188.176
 122524881.045 8  95473923.58745                  23315706.439    23315707.625
 117284016.734 8  91390152.95245                  22318401.278    22318402.273
 113011723.194 9  88061085.09847                  21505414.028    21505414.847
 114672048.888 9  89354843.22347                  21821358.313    21821359.737
 126883087.732 6  98869934.91344                  24145046.197    24145048.126
 114667845.918 9  89351570.73047                  21820560.404    21820563.262
 111039523.313 9  86524312.50748                  21130117.931    21130116.570
 122894938.948 8  95762294.08145                  23386122.331    23386123.812
 17  9  6  1 37 30.0000000  0 10G01G10G12G13G15G17G18G19G24G28
 128084920.360 7  99806439.55744                  24373752.195    24373750.520
 126035903.727 7  98209791.35445                  23983834.489    23983833.128
 122417407.607 8  95390178.10545                  23295254.800    23295255.741
 117383782.345 8  91467892.37545                  22337386.047    22337387.085
 113070467.863 9  88106860.17147                  21516592.707    21516593.556
 114659171.356 9  89344808.79047                  21818907.802    21818909.230
 126920409.293 6  98899016.59444                  24152148.462    24152149.999
 114595458.681 8  89295165.10247                  21806785.558    21806788.310
 110978165.819 9  86476501.47848                  21118442.005    21118440.592
 122982324.863 7  95830386.98245                  23402751.427    23402752.793
 17  9  6  1 38  0.0000000  0 10G01G10G12G13G15G17G18G19G24G28
 128072294.652 7  99796601.32544                  24371349.652    24371347.696
 126034624.048 7  98208794.21445                  23983591.091    23983589.785
 122310128.078 8  95306583.70145                  23274840.658    23274841.363
 117483868.657 8  91545881.69145                  22356431.873    22356432.865
 113129709.582 9  88153022.55247                  21527865.986    21527866.904
 114646868.155 9  89335221.87747                  21816566.580    21816567.961
 126958152.629 6  98928426.97844                  24159330.679    24159332.192
 114523604.373 9  89239174.73047                  21793112.091    21793114.783
 110917162.764 9  86428966.64348                  21106833.467    21106832.114
 123069839.388 8  95898580.10445                  23419404.808    23419406.277
 17  9  6  1 38 30.0000000  0 10G01G10G12G13G15G17G18G19G24G28
 128060264.380 7  99787227.09944                  24369060.378    24369058.256
 126033932.595 7  98208255.44445                  23983459.404    23983458.212
 122203045.991 8  95223143.12045                  23254462.914    23254464.183
 117584275.491 8  91624120.75845                  22375538.843    22375539.728
 113189448.785 9  88199572.57647                  21539234.016    21539234.825
 114635141.719 9  89326084.39047                  21814335.105    21814336.411
 126996317.667 7  98958165.97342                  24166592.940    24166594.864
 114452287.246 8  89183602.96347                  21779540.891    21779543.519
 110856517.675 9  86381710.72948                  21095293.105    21095291.797
 123157482.888 8  95966873.75545                  23436082.762    23436084.328
 17  9  6  1 39  0.0000000  0 10G01G10G12G13G15G17G18G19G24G28
 128048829.680 7  99778316.93844                  24366884.403    24366882.752
 126033828.669 7  98208174.44745                  23983439.516    23983438.448
 122096162.840 8  95139857.59845                  23234124.510    23234125.097
 117684999.718 8  91702607.15046                  22394705.922    22394706.899
 113249682.737 9  88246508.12047                  21550696.025    21550696.864
 114623991.798 9  89317396.15447                  21812213.326    21812214.580
 127034902.207 7  98988231.83443                  24173935.376    24173937.776
 114381509.352 9  89128451.39347                  21766072.421    21766074.881
 110796231.710 9  86334734.65948                  21083820.993    21083819.789
 123245253.022 8  96035266.03445                  23452785.244    23452786.411
 17  9  6  1 39 30.0000000  0 10G01G10G12G13G15G17G18G19G24G28
 128037991.016 7  99769871.22545                  24364821.820    24364820.454
 126034311.738 6  98208550.87645                  23983531.154    23983530.557
 121989479.480 8  95056727.71745                  23213822.687    23213823.881
 117786038.724 8  91781338.84346                  22413933.044    22413934.054
 113310409.553 9  88293827.70447                  21562251.997    21562252.716
 114613418.031 9  89309156.86847                  21810201.223    21810202.406
 127073904.559 7  99018623.26244                  24181357.212    24181359.670
 114311273.263 8  89073721.98147                  21752706.901    21752709.338
 110736306.205 9  86288039.45648                  21072417.479    21072416.333
 123333148.278 7  96103755.81145                  23469511.162    23469512.138
 17  9  6  1 40  0.0000000  0 10G01G10G12G13G15G17G18G19G24G28
 128027751.594 7  99761892.43145                  24362873.500    24362871.654
 126035384.068 7  98209386.46045                  23983735.464    23983734.674
 121883000.307 8  94973756.95845                  23193560.625    23193561.514
 117887392.355 8  91860315.66246                  22433220.005    22433221.032
 113371629.765 9  88341531.75747                  21573901.745    21573902.451
 114603423.683 9  89301369.06547                  21808299.347    21808300.515
 127113325.213 7  99049340.65344                  24188858.926    24188861.136
 114241583.767 9  89019418.48147                  21739445.531    21739447.885
 110676744.890 9  86241628.05848                  21061083.288    21061082.191
 123421169.664 7  96172343.90544                  23486260.930    23486261.985
 17  9  6  1 40 30.0000000  0 10G01G10G12G13G15G17G18G19G24G28
 128018109.718 6  99754379.29144                  24361038.570    24361036.444
 126037042.875 7  98210679.02645                  23984050.809    23984050.519
 121776724.296 8  94890944.52745                  23173337.235    23173338.082
 117989055.929 8  91939534.01446                  22452566.149    22452566.920
 113433338.957 9  88389616.81447                  21585644.668    21585645.225
 114594006.348 9  89294030.89047                  21806507.328    21806508.438
 127153160.533 7  99080381.15044                  24196439.592    24196441.813
 114172441.236 9  88965541.22247                  21726288.169    21726290.452
 110617546.839 9  86195499.71748                  21049818.291    21049817.153
 123509313.268 8  96241027.21245                  23503034.126    23503035.209
 17  9  6  1 41  0.0000000  0 10G01G10G12G13G15G17G18G19G24G28
 128009067.419 7  99747333.31444                  24359317.740    24359315.888
 126039289.267 7  98212429.44045                  23984478.347    23984477.928
 121670654.570 8  94808292.82145                  23153152.157    23153153.274
 118091028.431 8  92018993.09545                  22471970.716    22471971.683
 113495536.817 9  88438082.65347                  21597480.445    21597481.055
 114585167.932 9  89287143.81747                  21804825.411    21804826.585
 127193409.234 6  99111743.77644                  24204098.467    24204100.767
 114103849.558 9  88912093.17447                  21713235.503    21713237.943
 110558714.960 9  86149656.68848                  21038622.955    21038621.783
 123597579.040 7  96309805.72744                  23519830.626    23519831.603
 17  9  6  1 41 30.0000000  0 10G01G10G12G13G15G17G18G19G24G28
 128000623.807 7  99740753.90245                  24357711.462    24357709.069
 126042121.396 7  98214636.31044                  23985017.501    23985016.792
 121564790.828 8  94725801.62045                  23133007.711    23133008.448
 118193305.577 8  92098689.53945                  22491433.439    22491434.282
 113558219.688 9  88486926.43447                  21609408.557    21609409.155
 114576906.962 9  89280706.72247                  21803253.354    21803254.634
 127234068.595 6  99143426.36744                  24211835.901    24211837.855
 114035809.748 9  88859075.16547                  21700287.934    21700290.380
 110500248.699 9  86104098.58048                  21027497.276    21027496.011
 123685963.800 7  96378676.95344                  23536649.728    23536650.622
 17  9  6  1 42  0.0000000  0 10G01G10G12G13G15G17G18G19G24G28
 127992781.527 7  99734643.02545                  24356219.291    24356216.708
 126045540.897 7  98217300.86745                  23985668.060    23985667.151
 121459136.758 8  94643473.80245                  23112901.776    23112902.820
 118295887.575 8  92178623.54945                  22510954.195    22510955.011
 113621387.700 9  88536148.24947                  21621429.065    21621429.622
 114569225.507 9  89274721.18247                  21801791.570    21801792.937
 127275138.830 6  99175429.12744                  24219651.416    24219653.315
 113968326.353 9  88806490.71447                  21687446.090    21687448.812
 110442152.578 9  86058828.90148                  21016441.882    21016440.634
 123774468.367 7  96447641.58045                  23553491.236    23553492.386
 17  9  6  1 42 30.0000000  0 10G01G10G12G13G15G17G18G19G24G28
 127985538.233 7  99728998.89844                  24354840.663    24354838.403
 126049544.437 7  98220420.50945                  23986430.130    23986429.415
 121353691.543 8  94561308.71945                  23092836.613    23092837.554
 118398768.959 8  92258790.84545                  22530531.821    22530532.735
 113685036.267 9  88585744.50847                  21633540.955    21633541.589
 114562120.876 9  89269185.11947                  21800439.538    21800440.953
 127316615.066 6  99207748.26444                  24227543.973    24227545.950
 113901398.896 9  88754339.48047                  21674710.272    21674712.952
 110384424.504 9  86013845.99648                  21005456.521    21005455.317
 123863088.288 7  96516696.03945                  23570355.139    23570356.309
 17  9  6  1 43  0.0000000  0 10G01G10G12G13G15G17G18G19G24G28
 127978896.188 7  99723823.25344                  24353576.923    24353574.446
 126054133.315 7  98223996.25545                  23987303.165    23987302.353
 121248457.874 8  94479308.51345                  23072811.417    23072811.890
 118501948.664 8  92339190.59245                  22550166.520    22550167.239
 113749165.057 9  88635714.97447                  21645744.299    21645744.904
 114555594.978 9  89264099.99647                  21799197.692    21799199.128
 127358497.589 6  99240383.99744                  24235513.693    24235515.763
 113835031.568 9  88702624.69047                  21662080.863    21662083.759
 110327067.752 9  85969152.42448                  20994541.826    20994540.672
 123951823.881 7  96585840.63744                  23587240.590    23587242.310
 17  9  6  1 43 30.0000000  0 10G01G10G12G13G15G17G18G19G24G28
 127972856.347 7  99719116.88944                  24352426.978    24352425.245
 126059307.552 7  98228028.12245                  23988287.895    23988286.805
 121143438.433 8  94397475.17945                  23052826.446    23052827.522
 118605424.800 8  92419821.32145                  22569857.474    22569857.945
 113813772.428 9  88686058.36947                  21658038.716    21658039.367
 114549648.568 9  89259466.44247                  21798066.092    21798067.569
 127400784.737 6  99273334.96744                  24243560.885    24243562.508
 113769226.921 9  88651348.36247                  21649558.690    21649561.539
 110270084.439 9  85924749.86548                  20983698.244    20983697.084
 124040674.019 7  96655074.49945                  23604148.435    23604149.864
 17  9  6  1 44  0.0000000  0 10G01G10G12G13G15G17G18G19G24G28
 127967419.554 7  99714880.41545                  24351392.533    24351390.432
 126065066.921 7  98232515.96245                  23989384.299    23989383.109
 121038634.540 8  94315809.86745                  23032883.233    23032883.724
 118709195.510 8  92500681.60845                  22589604.207    22589604.890
 113878856.514 9  88736773.21447                  21670423.860    21670424.486
 114544281.673 9  89255284.44147                  21797044.759    21797046.301
 127443474.954 6  99306600.03145                  24251684.713    24251686.138
 113703988.474 9  88600513.21747                  21637144.152    21637147.158
 110213476.004 9  85880639.40948                  20972925.944    20972924.822
 124129637.317 7  96724396.56144                  23621077.415    23621079.254
 17  9  6  1 44 30.0000000  0 10G01G10G12G13G15G17G18G19G24G28
 127962583.591 7  99711112.14244                  24350472.336    24350470.131
 126071408.377 7  98237457.37045                  23990590.599    23990590.003
 120934045.346 8  94234311.79045                  23012980.379    23012981.199
 118813255.373 8  92581767.19346                  22609406.196    22609406.692
 113944413.069 9  88787856.21747                  21682898.958    21682899.609
 114539491.668 9  89251551.98147                  21796133.285    21796134.817
 127486564.026 6  99340175.93544                  24259884.346    24259885.764
 113639315.502 9  88550118.70547                  21624837.435    21624840.301
 110157241.550 9  85836820.34748                  20962224.874    20962223.796
 124218710.126 7  96793803.90145                  23638027.709    23638029.121
 17  9  6  1 45  0.0000000  0 10G01G10G12G13G15G17G18G19G24G28
 127958351.663 7  99707814.52344                  24349666.497    24349664.894
 126078334.005 6  98242853.94444                  23991908.398    23991907.068
 120829674.857 8  94152984.16845                  22993119.206    22993119.941
 118917604.422 8  92663078.12745                  22629263.210    22629263.745
 114010442.644 9  88839307.81647                  21695464.078    21695464.726
 114535281.648 9  89248271.45347                  21795332.200    21795333.695
 127530052.351 6  99374062.91144                  24268159.563    24268161.513
 113575213.132 9  88500168.81247                  21612639.138    21612642.008
 110101385.160 9  85793295.90748                  20951595.677    20951594.685
 124307893.472 7  96863297.43145                  23654998.640    23655000.504
 17  9  6  1 45 30.0000000  0 10G01G10G12G13G15G17G18G19G24G28
 127954722.551 7  99704986.63644                  24348976.714    24348974.213
 126085841.718 7  98248704.13944                  23993336.999    23993335.815
 120725523.393 8  94071827.21045                  22973299.825    22973300.738
 119022239.389 8  92744611.85846                  22649174.649    22649175.016
 114076941.384 9  88891124.97347                  21708118.464    21708119.105
 114531649.900 9  89245441.52347                  21794641.247    21794642.602
 127573936.740 6  99408258.53244                  24276510.857    24276512.506
 113511682.133 9  88450664.15247                  21600549.625    21600552.377
 110045906.811 9  85750066.03548                  20941038.455    20941037.536
 124397184.590 7  96932874.91544                  23671990.264    23671992.140
 17  9  6  1 46  0.0000000  0 10G01G10G12G13G15G17G18G19G24G28
 127951698.343 7  99702630.11144                  24348401.319    24348398.975
 126093932.628 6  98255008.74444                  23994876.793    23994875.607
 120621594.177 8  93990843.42345                  22953522.726    22953523.517
 119127158.673 8  92826367.13145                  22669140.159    22669140.385
 114143909.101 9  88943307.57647                  21720862.103    21720862.745
 114528598.070 9  89243063.48147                  21794060.505    21794061.823
 127618216.977 6  99442762.57144                  24284937.309    24284938.767
 113448726.507 9  88401607.83647                  21588569.541    21588572.266
 109990809.677 9  85707133.22048                  20930553.770    20930552.894
 124486583.612 7  97002536.45344                  23689001.934    23689004.084
 17  9  6  1 46 30.0000000  0 10G01G10G12G13G15G17G18G19G24G28
 127949276.672 7  99700743.08345                  24347940.319    24347938.135
 126102603.350 7  98261765.18244                  23996526.929    23996525.198
 120517886.049 8  93910031.93146                  22933787.888    22933788.641
 119232356.577 8  92908339.51545                  22689158.584    22689158.905
 114211340.708 9  88995851.65147                  21733693.941    21733694.619
 114526123.468 9  89241135.22047                  21793589.505    21793590.880
 127662888.423 6  99477571.48244                  24293437.581    24293439.490
 113386345.876 9  88352999.55647                  21576698.788    21576701.520
 109936091.964 9  85664496.05648                  20920141.354    20920140.483
 124576086.107 7  97072278.67444                  23706033.849    23706035.949
 17  9  6  1 47  0.0000000  0 10G01G10G12G13G15G17G18G19G24G28
 127947459.591 7  99699327.17343                  24347594.173    24347592.677
 126111855.055 7  98268974.29245                  23998287.459    23998286.030
 120414402.206 8  93829395.19146                  22914095.343    22914096.338
 119337834.524 8  92990530.10245                  22709230.403    22709230.810
 114279236.146 9  89048757.16647                  21746614.093    21746614.750
 114524227.414 9  89239657.78347                  21793228.631    21793230.031
 127707951.100 6  99512685.24444                  24302012.591    24302014.680
 113324544.426 9  88304842.58747                  21564938.265    21564941.030
 109881757.124 9  85622157.23248                  20909801.834    20909800.960
 124665692.777 7  97142102.02644                  23723085.524    23723087.561
 17  9  6  1 47 30.0000000  0 10G01G10G12G13G15G17G18G19G24G28
 127946248.613 6  99698383.52944                  24347363.398    24347362.467
 126121688.204 6  98276636.49645                  24000158.472    24000157.430
 120311144.872 8  93748934.96246                  22894446.316    22894447.180
 119443588.641 8  93072935.88046                  22729354.697    22729355.083
 114347594.783 9  89102023.61147                  21759622.363    21759623.055
 114522911.311 9  89238632.24447                  21792978.107    21792979.502
 127753404.122 6  99548103.16344                  24310661.459    24310663.918
 113263325.456 9  88257139.50047                  21553288.707    21553291.370
 109827807.887 9  85580118.87448                  20899535.638    20899534.821
 124755403.120 7  97212006.16645                  23740156.760    23740158.890
 17  9  6  1 48  0.0000000  0 10G01G10G12G13G15G17G18G19G24G28
 127945642.846 6  99697911.50145                  24347248.162    24347246.742
 126132101.001 7  98284750.37445                  24002140.010    24002138.741
 120208115.215 8  93668652.11145                  22874840.203    22874841.455
 119549617.967 8  93155556.11745                  22749531.388    22749531.990
 114416413.166 9  89155648.29947                  21772718.106    21772718.770
 114522173.778 9  89238057.56347                  21792837.848    21792839.101
 127799244.151 6  99583822.66744                  24319384.649    24319387.075
 113202690.098 8  88209891.16447                  21541750.128    21541752.880
 109774244.513 9  85538381.18048                  20889342.867    20889342.104
 124845214.658 7  97281989.17544                  23757247.425    23757249.380
 17  9  6  1 48 30.0000000  0 10G01G10G12G13G15G17G18G19G24G28
 127945640.560 7  99697909.73745                  24347247.395    24347246.396
 126143090.748 7  98293313.82045                  24004231.215    24004230.175
 120105312.479 8  93588546.12746                  22855277.694    22855278.555
 119655915.168 8  93238385.10145                  22769759.079    22769759.573
 114485687.107 9  89209627.96547                  21785900.453    21785901.216
 114522012.824 9  89237932.14547                  21792807.220    21792808.407
 127845467.396 6  99619840.75944                  24328181.184    24328183.345
 113142638.538 9  88163097.76647                  21530322.793    21530325.389
 109721066.275 9  85496943.60148                  20879223.364    20879222.645
 124935124.335 7  97352048.67145                  23774356.639    23774358.682
 17  9  6  1 49  0.0000000  0 10G01G10G12G13G15G17G18G19G24G28
 127946244.819 7  99698380.59044                  24347362.726    24347361.424
 126154659.503 6  98302328.44445                  24006433.014    24006431.553
 120002740.924 8  93508620.25045                  22835758.788    22835760.009
 119762481.863 8  93321424.06745                  22790038.295    22790038.606
 114555417.241 9  89263963.11547                  21799169.698    21799170.366
 114522431.059 9  89238258.05647                  21792886.780    21792888.030
 127892074.519 6  99656158.00643                  24337050.173    24337052.511
 113083176.010 9  88116763.34147                  21519007.461    21519010.058
 109668277.589 9  85455809.57848                  20869177.992    20869177.328
 125025133.295 7  97422185.49944                  23791484.502    23791486.830
 17  9  6  1 49 30.0000000  0 10G01G10G12G13G15G17G18G19G24G28
 127947454.735 7  99699323.35745                  24347593.104    24347591.866
 126166805.455 6  98311792.82546                  24008744.045    24008742.589
 119900401.082 8  93428874.95246                  22816284.172    22816285.170
 119869315.279 8  93404670.85946                  22810368.004    22810368.442
 114625600.198 9  89318651.12047                  21812525.090    21812525.715
 114523427.227 9  89239034.29847                  21793076.346    21793077.576
 127939062.635 6  99692772.07443                  24345991.939    24345994.153
 113024303.556 9  88070888.72747                  21507804.252    21507806.985
 109615878.831 9  85414979.37848                  20859206.970    20859206.140
 125115238.861 7  97492397.58544                  23808631.254    23808633.283
 17  9  6  1 50  0.0000000  0 10G01G10G12G13G15G17G18G19G24G28
 127949271.358 7  99700738.90044                  24347938.855    24347937.587
 126179528.757 7  98321707.07544                  24011164.993    24011164.068
 119798295.244 8  93349311.98746                  22796854.365    22796855.147
 119976413.614 8  93488124.10645                  22830748.093    22830748.602
 114696234.854 9  89373691.07847                  21825966.425    21825966.972
 114525002.191 9  89240261.54647                  21793375.946    21793377.276
 127986430.564 7  99729682.14743                  24355005.581    24355008.256
 112966024.129 9  88025476.20647                  21496714.165    21496716.737
 109563872.541 9  85374455.00648                  20849310.543    20849309.684
 125205440.631 7  97562684.69144                  23825795.915    23825798.347
 17  9  6  1 50 30.0000000  0 10G01G10G12G13G15G17G18G19G24G28
 127951694.389 6  99702626.98045                  24348400.180    24348398.455
 126192828.136 7  98332070.21945                  24013695.801    24013694.879
 119696424.199 8  93269931.96845                  22777468.603    22777469.601
 120083771.699 8  93571779.73245                  22851177.751    22851178.214
 114767318.656 9  89429081.02247                  21839493.146    21839493.657
 114527155.217 9  89241939.24247                  21793785.618    21793787.037
 128034176.133 7  99766886.47043                  24364091.302    24364094.090
 112908339.654 9  87980527.27347                  21485736.947    21485739.758
 109512259.310 9  85334236.90348                  20839488.887    20839488.031
 125295737.023 7  97633045.47544                  23842978.760    23842980.947
 17  9  6  1 51  0.0000000  0 10G01G10G12G13G15G17G18G19G24G28
 127954724.108 7  99704987.80645                  24348976.695    24348974.848
 126206702.899 7  98342881.71446                  24016336.193    24016335.189
 119594790.656 8  93190737.03246                  22758128.543    22758129.428
 120191389.406 8  93655637.66145                  22871656.584    22871657.290
 114838849.711 9  89484819.47047                  21853105.213    21853105.564
 114529885.894 9  89244067.04947                  21794305.258    21794306.745
 128082296.757 6  99804383.06443                  24373248.330    24373251.021
 112851251.981 9  87936043.39847                  21474873.584    21474876.323
 109461040.301 9  85294326.00048                  20829742.321    20829741.347
 125386126.318 7  97703478.69544                  23860179.249    23860181.512
 17  9  6  1 51 30.0000000  0 10G01G10G12G13G15G17G18G19G24G28
 127958358.283 7  99707819.61444                  24349668.152    24349666.290
 126221149.901 7  98354139.11945                  24019085.191    24019084.296
 119493393.220 8  93111726.05946                  22738832.738    22738833.912
 120299262.415 8  93739694.55345                  22892184.036    22892184.918
 114910823.066 9  89540902.57847                  21866801.212    21866801.667
 114533192.078 9  89246643.30047                  21794934.359    21794935.885
 128130788.747 6  99842169.04543                  24382475.801    24382478.574
 112794761.314 9  87892024.70647                  21464123.755    21464126.531
 109410215.560 9  85254722.30948                  20820070.725    20820069.667
 125476605.438 7  97773981.91044                  23877396.702    23877398.925
 17  9  6  1 52  0.0000000  0 10G01G10G12G13G15G17G18G19G24G28
 127962604.173 7  99711128.09844                  24350475.889    24350474.363
 126236175.458 7  98365847.36445                  24021944.723    24021943.529
 119392240.595 8  93032905.85746                  22719584.131    22719585.219
 120407392.427 8  93823951.68245                  22912760.648    22912761.369
 114983244.159 9  89597334.57747                  21880582.589    21880583.009
 114537081.244 9  89249673.82347                  21795674.413    21795676.016
 128179657.176 6  99880248.29444                  24391775.280    24391777.587
 112738877.103 9  87848478.58947                  21453489.310    21453492.155
 109359793.042 9  85215432.04448                  20810475.687    20810474.498
 125567179.770 7  97844559.29145                  23894632.717    23894634.671
 17  9  6  1 52 30.0000000  0 10G01G10G12G13G15G17G18G19G24G28
 127967451.674 7  99714905.32844                  24351398.472    24351396.794
 126251768.480 6  98377997.77845                  24024911.742    24024910.878
 119291323.758 8  92954269.39746                  22700380.221    22700381.009
 120515769.873 8  93908401.62845                  22933384.187    22933384.953
 115056100.298 9  89654105.57047                  21894446.546    21894447.160
 114541542.075 9  89253149.79447                  21796523.251    21796524.937
 128228889.764 6  99918611.32444                  24401143.886    24401146.178
 112683590.770 9  87805398.36147                  21442968.816    21442971.509
 109309764.038 9  85176448.41448                  20800955.571    20800954.230
 125657837.923 7  97915201.97944                  23911884.207    23911886.362
 17  9  6  1 53  0.0000000  0 10G01G10G12G13G15G17G18G19G24G28
 127972906.547 6  99719155.89844                  24352436.398    24352434.744
 126267933.845 6  98390594.14845                  24027987.805    24027987.080
 119190650.558 8  92875822.75345                  22681222.726    22681223.679
 120624395.638 8  93993045.06945                  22954055.270    22954055.772
 115129395.344 9  89711218.57647                  21908394.156    21908394.851
 114546579.391 9  89257074.97847                  21797481.805    21797483.560
 128278489.974 6  99957260.81344                  24410582.577    24410584.689
 112628910.361 9  87762790.27147                  21432563.485    21432566.233
 109260135.866 9  85137777.11548                  20791511.698    20791510.261
 125748584.601 7  97985913.65344                  23929152.766    23929154.988
 17  9  6  1 53 30.0000000  0 10G01G10G12G13G15G17G18G19G24G28
 127978969.295 7  99723880.11844                  24353589.772    24353588.495
 126284671.062 6  98403636.14745                  24031172.863    24031171.882
 119090222.675 8  92797567.29145                  22662111.989    22662112.739
 120733268.929 8  94077881.36645                  22974772.878    22974773.641
 115203127.334 9  89768672.05947                  21922424.998    21922425.653
 114552194.219 9  89261450.17547                  21798550.296    21798552.033
 128328456.587 6  99996195.81144                  24420091.008    24420093.221
 112574838.549 9  87720656.41248                  21422273.951    21422276.727
 109210910.018 9  85099419.32748                  20782144.242    20782142.822
 125839418.745 7  98056693.49744                  23946437.873    23946440.026
 17  9  6  1 54  0.0000000  0 10G01G10G12G13G15G17G18G19G24G28
 127985634.220 7  99729073.53544                  24354858.592    24354857.394
 126301973.564 6  98417118.59645                  24034465.720    24034464.362
 118990036.435 8  92719500.10346                  22643047.283    22643048.193
 120842383.077 8  94162905.37445                  22995536.769    22995537.450
 115277288.549 9  89826460.00247                  21936537.244    21936538.117
 114558380.850 9  89266270.93347                  21799727.513    21799729.268
 128378782.199 6 100035410.53644                  24429667.667    24429669.695
 112521371.757 9  87678994.00747                  21412099.520    21412102.359
 109162082.431 9  85061371.85848                  20772852.685    20772851.211
 125930333.512 7  98127536.14145                  23963738.424    23963740.477
 17  9  6  1 54 30.0000000  0 10G01G10G12G13G15G17G18G19G24G28
 127992909.199 7  99734742.33644                  24356243.284    24356241.789
 126319848.245 7  98431046.92345                  24037867.198    24037866.187
 118890101.001 8  92641628.35146                  22624029.977    22624031.154
 120951740.095 8  94248118.60745                  23016346.536    23016347.268
 115351884.486 9  89884586.70447                  21950732.477    21950733.264
 114565146.220 9  89271542.66347                  21801014.817    21801016.651
 128429471.632 6 100074908.77945                  24439313.336    24439315.513
 112468519.621 9  87637810.54648                  21402042.068    21402044.890
 109113662.319 9  85023641.91048                  20763638.623    20763637.153
 126021335.271 7  98198446.59444                  23981055.855    23981057.655
 17  9  6  1 55  0.0000000  0 10G01G10G12G13G15G17G18G19G24G28
 128000790.504 7  99740883.59945                  24357743.394    24357741.539
 126338290.444 7  98445417.45144                  24041376.666    24041375.752
 118790413.196 8  92563949.57246                  22605060.179    22605061.249
 121061335.517 8  94333517.62545                  23037201.993    23037202.625
 115426908.759 9  89943047.16447                  21965009.057    21965009.896
 114572486.288 9  89277262.21047                  21802411.566    21802413.407
 128480519.759 6 100114686.52444                  24449027.536    24449029.881
 112416280.296 9  87597104.60947                  21392101.270    21392104.095
 109065648.118 9  84986228.26048                  20754501.797    20754500.318
 126112418.820 7  98269420.77444                  23998388.047    23998390.231
 17  9  6  1 55 30.0000000  0 10G01G10G12G13G15G17G18G19G24G28
 128009277.595 7  99747496.89744                  24359358.177    24359356.740
 126357298.804 6  98460229.17145                  24044993.435    24044992.637
 118690975.551 8  92486465.71546                  22586137.662    22586138.871
 121171166.991 8  94419100.57045                  23058102.245    23058102.895
 115502359.861 9  90001840.21247                  21979366.935    21979367.769
 114580400.413 9  89283429.06547                  21803917.552    21803919.380
 128531923.460 6 100154741.34244                  24458809.667    24458811.751
 112364655.566 9  87556877.57247                  21382277.463    21382280.229
 109018040.079 9  84949131.09348                  20745442.252    20745440.822
 126203582.669 7  98340457.48744                  24015736.281    24015738.081
 17  9  6  1 56  0.0000000  0 10G01G10G12G13G15G17G18G19G24G28
 128018371.343 7  99754582.94444                  24361088.487    24361087.490
 126376873.192 6  98475481.90745                  24048717.942    24048717.352
 118591790.173 8  92409178.43446                  22567263.539    22567264.610
 121281231.767 8  94504865.32145                  23079046.850    23079047.567
 115578235.504 9  90060964.07247                  21993805.548    21993806.371
 114588889.135 9  89290043.65847                  21805532.880    21805534.730
 128583681.602 6 100195072.29044                  24468659.171    24468661.064
 112313648.135 9  87517131.55247                  21372570.857    21372573.784
 108970841.310 9  84912352.84948                  20736460.568    20736459.183
 126294826.406 7  98411556.50944                  24033099.541    24033101.264
 17  9  6  1 56 30.0000000  0 10G01G10G12G13G15G17G18G19G24G28
 128028072.254 7  99762142.09044                  24362934.668    24362933.066
 126397013.140 7  98491175.42344                  24052550.795    24052550.065
 118492858.894 8  92332089.15146                  22548437.458    22548438.560
 121391528.936 8  94590811.14045                  23100035.613    23100036.373
 115654534.096 9  90120417.50547                  22008324.767    22008325.504
 114597952.470 9  89297106.01347                  21807257.701    21807259.413
 128635793.557 6 100235679.00244                  24478575.555    24478577.443
 112263260.310 9  87477868.31947                  21362982.375    21362985.288
 108924052.916 9  84875894.35148                  20727556.970    20727555.671
 126386149.214 7  98482717.12444                  24050477.370    24050479.428
 17  9  6  1 57  0.0000000  0 10G01G10G12G13G15G17G18G19G24G28
 128038378.216 7  99770172.68844                  24364895.585    24364894.071
 126417715.708 7  98507307.27444                  24056490.404    24056490.043
 118394181.422 8  92255197.64846                  22529659.760    22529660.850
 121502053.572 8  94676934.20745                  23121067.975    23121068.542
 115731251.498 9  90180197.27147                  22022923.551    22022924.316
 114607588.073 9  89304614.27547                  21809091.288    21809092.978
 128688254.898 6 100276557.94544                  24488558.793    24488560.540
 112213492.463 9  87439088.20147                  21353511.752    21353514.752
 108877674.670 9  84839755.46848                  20718731.546    20718730.196
 126477548.265 7  98553937.15444                  24067870.387    24067872.173
 17  9  6  1 57 30.0000000  0 10G01G10G12G13G15G17G18G19G24G28
 128049288.143 7  99778673.92045                  24366971.826    24366970.113
 126438978.868 6  98523875.97245                  24060536.778    24060536.193
 118295758.271 8  92178504.31246                  22510930.570    22510931.588
 121612802.394 8  94763231.96745                  23142142.647    23142143.360
 115808384.807 9  90240301.11847                  22037601.585    22037602.327
 114617794.675 9  89312567.48447                  21811033.581    21811035.182
 128741062.417 6 100317706.63543                  24498607.975    24498609.411
 112164345.763 9  87400792.09147                  21344159.443    21344162.434
 108831707.483 9  84803936.89148                  20709984.215    20709982.925
 126569021.439 7  98625214.91843                  24085277.000    24085278.999
 17  9  6  1 58  0.0000000  0 10G01G10G12G13G15G17G18G19G24G28
 128060805.224 7  99787648.25944                  24369163.794    24369161.889
 126460804.933 7  98540883.27844                  24064690.190    24064689.293
 118197595.124 8  92102013.55746                  22492250.579    22492251.727
 121723776.439 8  94849705.21945                  23163260.398    23163261.066
 115885935.551 9  90300730.26147                  22052358.969    22052359.778
 114628575.509 9  89320968.13147                  21813085.029    21813086.623
 128794217.335 6 100359126.01944                  24508723.050    24508724.652
 112115825.337 9  87362983.98348                  21334926.294    21334929.227
 108786155.643 9  84768441.95148                  20701315.866    20701314.728
 126660570.930 7  98696552.19744                  24102698.170    24102700.175
 17  9  6  1 58 30.0000000  0 10G01G10G12G13G15G17G18G19G24G28
 128072926.767 6  99797093.60744                  24371470.368    24371468.406
 126483190.229 7  98558326.36945                  24068949.757    24068949.145
 118099690.123 8  92025723.97646                  22473619.945    22473620.930
 121834970.405 8  94936349.86445                  23184420.042    23184420.753
 115963898.129 9  90361480.29847                  22067194.863    22067195.534
 114639927.135 9  89329813.56347                  21815245.166    21815246.712
 128847714.991 6 100400812.45344                  24518903.158    24518904.941
 112067930.307 9  87325663.21648                  21325812.159    21325815.058
 108741018.609 9  84733270.23248                  20692726.482    20692725.460
 126752192.830 7  98767945.85544                  24120133.513    24120135.444
 17  9  6  1 59  0.0000000  0 10G01G10G12G13G15G17G18G19G24G28
 128085653.995 7  99807010.92145                  24373891.644    24373890.025
 126506135.139 7  98576205.53445                  24073316.085    24073315.416
 118002046.275 8  91949637.88746                  22455038.647    22455039.834
 121946383.272 8  95023165.04745                  23205621.166    23205621.815
 116042272.000 9  90422550.83647                  22082108.820    22082109.615
 114651850.419 9  89339104.43247                  21817514.137    21817515.685
 128901554.835 6 100442765.56744                  24529148.224    24529150.567
 112020664.064 9  87288832.41747                  21316817.511    21316820.555
 108696298.746 9  84698423.59548                  20684216.562    20684215.607
 126843887.328 7  98839396.11344                  24137582.541    24137584.256
 17  9  6  1 59 30.0000000  0 10G01G10G12G13G15G17G18G19G24G28
 128098985.284 6  99817398.91444                  24376429.162    24376426.843
 126529637.155 7  98594518.78544                  24077788.711    24077787.552
 117904663.990 8  91873755.61646                  22436507.261    22436508.512
 122058011.383 8  95110147.97245                  23226863.140    23226863.992
 116121053.374 9  90483938.89747                  22097100.541    22097101.236
 114664343.723 9  89348839.49147                  21819891.583    21819893.088
 128955733.438 6 100484982.59743                  24539458.664    24539460.578
 111974027.032 9  87252491.89548                  21307942.738    21307945.728
 108651996.203 9  84663902.13748                  20675786.084    20675785.095
 126935651.815 7  98910900.88844                  24155044.706    24155046.398
 17  9  6  2  0  0.0000000  0 10G01G10G12G13G15G17G18G19G24G28
 128112920.283 6  99828257.34345                  24379081.016    24379078.389
 126553694.928 7  98613265.11445                  24082366.757    24082365.636
 117807544.754 8  91798078.31046                  22418026.327    22418027.312
 122169852.043 8  95197296.52744                  23248145.806    23248146.639
 116200239.739 9  90545642.53147                  22112169.138    22112169.877
 114677406.303 9  89359018.13147                  21822377.357    21822378.802
 129010248.359 6 100527461.70144                  24549832.709    24549834.161
 111928020.811 9  87216642.92148                  21299187.999    21299190.946
 108608111.989 9  84629706.63348                  20667435.201    20667434.189
 127027485.004 7  98982459.20244                  24172520.191    24172521.768
 17  9  6  2  0 30.0000000  0 10G01G10G12G13G15G17G18G19G24G28
 128127460.315 6  99839587.21244                  24381847.756    24381845.164
 126578309.030 6  98632444.90645                  24087050.520    24087049.550
 117710691.844 8  91722608.52246                  22399595.659    22399596.870
 122281904.569 8  95284610.15444                  23269468.762    23269469.508
 116279830.831 9  90607661.55847                  22127314.803    22127315.629
 114691039.310 9  89369641.26647                  21824971.528    21824973.101
 129065099.285 6 100570202.65944                  24560270.648    24560271.892
 111882649.064 9  87181288.33848                  21290554.018    21290556.942
 108564649.554 9  84595839.79948                  20659164.574    20659163.580
 127119387.232 7  99054071.28644                  24190008.967    24190010.008
 17  9  6  2  1  0.0000000  0 10G01G10G12G13G15G17G18G19G24G28
 128142603.096 6  99851386.79244                  24384729.158    24384726.990
 126603476.202 7  98652055.68445                  24091839.741    24091838.501
 117614104.868 9  91647345.96646                  22381215.804    22381216.932
 122394164.185 8  95372085.16144                  23290831.205    23290831.868
 116359822.312 9  90669992.55847                  22142536.807    22142537.526
 114705240.004 9  89380706.73747                  21827673.776    21827675.338
 129120281.964 6 100613202.11943                  24570771.319    24570772.872
 111837911.114 9  87146427.61547                  21282040.681    21282043.593
 108521607.824 9  84562300.79148                  20650973.952    20650973.023
 127211355.601 6  99125734.95744                  24207509.678    24207511.042
 17  9  6  2  1 30.0000000  0 10G01G10G12G13G15G17G18G19G24G28
 128158349.692 6  99863656.86544                  24387725.796    24387723.473
 126629196.567 7  98672097.52645                  24096734.584    24096732.859
 117517786.317 8  91572292.56646                  22362887.066    22362888.067
 122506630.095 8  95459720.92145                  23312232.684    23312233.407
 116440213.128 9  90732634.74247                  22157834.492    22157835.407
 114720009.358 9  89392215.33747                  21830484.225    21830485.734
 129175795.711 6 100656459.54344                  24581335.178    24581336.472
 111793810.609 9  87112063.61247                  21273648.557    21273651.618
 108478989.918 9  84529092.03748                  20642864.035    20642863.064
 127303390.155 7  99197450.16044                  24225023.408    24225024.713
 17  9  6  2  2  0.0000000  0 10G01G10G12G13G15G17G18G19G24G28
 128174697.579 6  99876395.44944                  24390836.848    24390834.539
 126655466.824 7  98692567.82345                  24101733.547    24101732.214
 117421735.390 8  91497447.71246                  22344609.150    22344610.065
 122619297.357 8  95547513.56045                  23333672.635    23333673.203
 116520998.809 9  90795584.60847                  22173207.592    22173208.417
 114735344.451 9  89404164.76047                  21833402.396    21833403.857
 129231636.279 6 100699971.61643                  24591961.293    24591962.721
 111750347.040 9  87078195.93147                  21265377.647    21265380.805
 108436795.565 9  84496213.32748                  20634834.772    20634833.710
 127395487.792 7  99269214.53043                  24242549.260    24242550.316
 17  9  6  2  2 30.0000000  0 10G01G10G12G13G15G17G18G19G24G28
 128191649.109 6  99889604.41644                  24394062.964    24394060.308
 126682288.411 7  98713467.79545                  24106837.626    24106836.459
 117325957.465 9  91422815.58546                  22326383.253    22326384.114
 122732166.297 8  95635463.35444                  23355150.926    23355151.395
 116602179.734 9  90858842.45247                  22188655.750    22188656.657
 114751247.579 9  89416556.81147                  21836428.638    21836430.199
 129287803.605 6 100743738.35944                  24602649.640    24602650.931
 111707524.530 9  87044827.75547                  21257228.652    21257231.970
 108395028.520 9  84463667.58048                  20626886.768    20626885.717
 127487649.815 7  99341029.07244                  24260086.883    24260088.118
 17  9  6  2  3  0.0000000  0 10G01G10G12G13G15G17G18G19G24G28
 128209204.25316  99903286.39854                  24397403.236    24397400.602
 126709657.487 6  98734794.31645                  24112045.864    24112044.176
 117230450.497 9  91348394.58446                  22308208.846    22308209.700
 122845232.234 8  95723566.69044                  23376666.378    23376667.210
 116683750.640 9  90922404.17947                  22204178.150    22204179.073
 114767715.469 9  89429388.94347                  21839562.422    21839564.018
 129344293.514 6 100787756.43743                  24613399.197    24613400.543
 111665342.197 9  87011958.42947                  21249201.544    21249204.921
 108353687.239 9  84431453.59748                  20619019.762    20619018.727
 127579872.556 7  99412890.94044                  24277636.293    24277637.523
 17  9  6  2  3 30.0000000  0 10G01G10G12G13G15G17G18G19G24G28
 128227360.081 6  99917433.77344                  24400857.788    24400855.238
 126737576.116 7  98756549.06945                  24117358.414    24117356.801
 117135219.737 9  91274188.81946                  22290086.964    22290087.907
 122958496.072 8  95811824.19944                  23398219.809    23398220.531
 116765713.512 9  90986271.33946                  22219775.208    22219776.077
 114784750.319 9  89442662.85647                  21842804.085    21842805.588
 129401107.196 6 100832026.82843                  24624210.341    24624211.816
 111623805.294 9  86979592.02947                  21241297.239    21241300.706
 108312776.896 9  84399575.41848                  20611234.739    20611233.718
 127672158.545 7  99484802.04345                  24295197.688    24295198.808
 17  9  6  2  4  0.0000000  0 10G01G10G12G13G15G17G18G19G24G28
 128246113.212 6  99932046.56144                  24404426.671    24404424.197
 126766037.115 6  98778726.46744                  24122774.193    24122772.690
 117040260.534 8  91200194.66246                  22272016.736    22272017.754
 123071949.406 8  95900229.39344                  23419809.153    23419809.846
 116848059.445 9  91050436.96946                  22235445.057    22235445.963
 114802346.295 9  89456374.01247                  21846152.467    21846153.950
 129458236.628 6 100876543.27544                  24635082.346    24635083.334
 111582909.220 9  86947724.97547                  21233514.750    21233518.436
 108272292.637 9  84368029.24548                  20603530.811    20603529.814
 127764500.720 6  99556756.97544                  24312769.985    24312770.749
 17  9  6  2  4 30.0000000  0 10G01G10G12G13G15G17G18G19G24G28
 128265465.776 6  99947126.50445                  24408109.400    24408106.950
 126795041.781 7  98801327.52544                  24128293.571    24128292.106
 116945577.724 9  91126415.85146                  22253999.090    22254000.286
 123185592.224 8  95988782.20145                  23441434.661    23441435.456
 116930788.773 9  91114901.36547                  22251188.081    22251188.914
 114820505.336 9  89470523.92447                  21849607.936    21849609.536
 129515681.928 6 100921305.76045                  24646013.909    24646014.864
 111542658.548 9  86916360.82647                  21225855.335    21225859.047
 108232238.352 9  84336818.11948                  20595908.796    20595907.683
 127856900.483 6  99628756.77543                  24330353.034    24330353.834
 17  9  6  2  5  0.0000000  0  9G01G10G12G13G15G17G19G24G28
 128285420.005 6  99962675.27644                  24411906.370    24411904.316
 126824591.426 7  98824353.22945                  24133916.394    24133915.514
 116851175.402 9  91052855.62946                  22236035.100    22236036.115
 123299424.802 8  96077482.89744                  23463096.422    23463097.028
 117013902.059 9  91179664.95846                  22267003.966    22267004.823
 114839229.185 9  89485113.93047                  21853171.063    21853172.554
 111503057.482 9  86885502.86647                  21218319.475    21218323.215
 108192618.916 9  84305945.84448                  20588369.502    20588368.343
 127949359.514 6  99700802.77644                  24347947.326    24347948.345
 17  9  6  2  5 30.0000000  0  9G01G10G12G13G15G17G19G24G28
 128305970.001 6  99978688.20544                  24415816.967    24415814.951
 126854679.300 7  98847798.31544                  24139642.144    24139641.260
 116757049.470 9  90979510.76046                  22218123.389    22218124.599
 123413439.301 8  96166325.37544                  23484792.655    23484793.420
 117097391.302 9  91244721.49447                  22282891.582    22282892.398
 114858511.522 9  89500139.13847                  21856840.357    21856841.772
 111464102.140 9  86855148.08947                  21210906.513    21210910.247
 108153429.440 9  84275408.59848                  20580911.964    20580910.786
 128041871.029 6  99772889.61544                  24365551.554    24365552.665
 17  9  6  2  6  0.0000000  0  9G01G10G12G13G15G17G19G24G28
 128327120.974 6  99995169.48645                  24419841.697    24419840.216
 126885309.742 7  98871666.18744                  24145470.663    24145470.003
 116663206.840 9  90906386.65646                  22200265.820    22200266.857
 123527639.203 8  96255312.28445                  23506524.236    23506525.046
 117181260.114 9  91310073.78946                  22298851.310    22298852.079
 114878357.471 9  89515603.51147                  21860616.923    21860618.312
 111425799.867 9  86825302.17847                  21203617.936    21203621.573
 108114678.159 9  84245212.78848                  20573537.808    20573536.657
 128134440.098 6  99845021.32943                  24383166.932    24383167.914
 17  9  6  2  6 30.0000000  0  9G01G10G12G13G15G17G19G24G28
 128348867.448 6 100012114.75845                  24423980.264    24423978.344
 126916476.580 7  98895952.02844                  24151401.590    24151401.040
 116569644.518 9  90833480.95946                  22182461.497    22182462.581
 123642017.168 8  96344437.95944                  23528289.995    23528290.407
 117265501.120 9  91375716.11647                  22314881.830    22314882.734
 114898761.501 9  89531502.76447                  21864499.622    21864501.046
 111388146.963 9  86795962.26347                  21196452.990    21196456.458
 108076360.266 9  84215354.69148                  20566246.247    20566245.022
 128227060.478 6  99917193.05444                  24400791.974    24400793.028
 17  9  6  2  7  0.0000000  0  9G01G10G12G13G15G17G19G24G28
 128371210.187 6 100029524.67044                  24428231.774    24428230.073
 126948179.522 7  98920655.63044                  24157434.088    24157433.725
 116476365.546 9  90760796.07046                  22164711.112    22164712.201
 123756571.871 8  96433701.35444                  23550088.630    23550089.585
 117350113.371 9  91441647.72246                  22330983.047    22330983.958
 114919724.115 9  89547837.26647                  21868488.666    21868490.028
 111351146.637 9  86767130.86548                  21189412.075    21189415.548
 108038479.118 9  84185836.92048                  20559037.721    20559036.426
 128319732.626 6  99989405.07243                  24418426.756    24418427.957
 17  9  6  2  7 30.0000000  0  9G01G10G12G13G15G17G19G24G28
 128394150.572 6 100047400.28244                  24432596.800    24432595.323
 126980419.190 7  98945777.43944                  24163569.006    24163568.694
 116383373.529 9  90688334.78446                  22147015.418    22147016.491
 123871302.907 8  96523102.15044                  23571921.348    23571922.211
 117435096.307 9  91507868.17747                  22347154.705    22347155.750
 114941246.597 9  89564608.04047                  21872584.306    21872585.733
 111314802.151 9  86738810.50048                  21182496.006    21182499.416
 108001038.189 9  84156662.16948                  20551912.987    20551911.624
 128412457.438 7 100061658.11844                  24436072.329    24436072.938
 17  9  6  2  8  0.0000000  0  9G01G10G12G13G15G17G19G24G28
 128417686.532 6 100065739.98245                  24437075.847    24437073.960
 127013192.729 7  98971315.24645                  24169805.813    24169805.487
 116290668.201 9  90616096.88246                  22129374.138    22129375.230
 123986206.394 8  96612637.31244                  23593786.924    23593787.552
 117520446.237 9  91574374.59947                  22363396.397    22363397.248
 114963326.627 9  89581813.25647                  21876785.912    21876787.530
 111279113.495 9  86711001.18148                  21175704.595    21175707.996
 107964037.175 9  84127830.20548                  20544871.958    20544870.583
 128505232.268 6 100133950.13445                  24453726.740    24453727.383
 17  9  6  2  8 30.0000000  0  9G01G10G12G13G15G17G19G24G28
 128441817.617 6 100084543.42945                  24441667.986    24441665.530
 127046498.847 6  98997268.07445                  24176143.835    24176143.175
 116198251.177 9  90544083.64546                  22111787.725    22111788.778
 124101280.046 8  96702305.09544                  23615684.728    23615685.299
 117606161.136 9  91641165.40846                  22379707.441    22379708.227
 114985963.372 9  89599452.28247                  21881093.664    21881095.189
 111244082.149 9  86683704.03347                  21169038.322    21169041.716
 107927477.868 9  84099342.43648                  20537914.946    20537913.579
 128598056.187 6 100206280.48043                  24471390.587    24471391.277
 17  9  6  2  9  0.0000000  0  9G01G10G12G13G15G17G19G24G28
 128466542.410 6 100103809.47245                  24446372.836    24446370.312
 127080335.212 7  99023634.06545                  24182582.580    24182582.087
 116106123.574 8  90472295.92746                  22094256.286    22094257.419
 124216520.792 8  96792103.05944                  23637614.132    23637614.961
 117692237.393 9  91708237.80347                  22396087.266    22396087.959
 115009155.349 9  89617523.95547                  21885506.875    21885508.487
 111209708.867 9  86656919.66747                  21162497.276    21162500.663
 107891360.520 9  84071199.06448                  20531042.017    20531040.652
 128690927.688 6 100278647.84044                  24489063.519    24489064.160
 17  9  6  2  9 30.0000000  0  9G01G10G12G13G15G17G19G24G28
 128491858.231 6 100123536.08245                  24451190.314    24451187.639
 127114698.436 7  99050410.61545                  24189121.779    24189121.565
 116014284.772 9  90400733.24946                  22076779.949    22076780.998
 124331924.230 8  96882027.81444                  23659574.554    23659575.558
 117778671.118 9  91775588.73546                  22412535.173    22412535.720
 115032900.030 9  89636026.29847                  21890025.344    21890027.027
 111175992.988 9  86630647.56848                  21156081.270    21156084.703
 107855684.655 9  84043399.68748                  20524253.079    20524251.796
 128783843.874 6 100351049.98544                  24506745.076    24506745.664
 17  9  6  2 10  0.0000000  0  9G01G10G12G13G15G17G19G24G28
 128517767.533 6 100143725.10545                  24456120.702    24456118.087
 127149590.052 7  99077598.88545                  24195761.531    24195760.940
 115922739.593 9  90329399.35846                  22059359.400    22059360.488
 124447491.144 7  96972079.95245                  23681566.244    23681567.181
 117865462.916 9  91843218.68046                  22429051.081    22429051.585
 115057199.321 9  89654960.83047                  21894649.396    21894651.142
 111142939.208 9  86604891.38547                  21149791.339    21149794.736
 107820454.792 9  84015947.84848                  20517549.045    20517547.758
 128876806.503 6 100423488.41644                  24524434.716    24524435.960
 17  9  6  2 10 30.0000000  0  9G01G10G12G13G15G17G19G24G28
 128544267.885 6 100164374.71344                  24461163.486    24461161.263
 127185006.825 7  99105196.36045                  24202501.506    24202500.408
 115831487.460 9  90258293.82246                  22041994.710    22041995.696
 124563217.019 7  97062255.93645                  23703588.171    23703589.077
 117952608.698 9  91911124.45846                  22445634.496    22445634.816
 115082050.559 9  89674325.42347                  21899378.465    21899380.205
 111110546.764 9  86579650.54247                  21143627.283    21143630.575
 107785670.533 9  83988843.23348                  20510929.805    20510928.599
 128969812.843 6 100495960.80944                  24542133.268    24542134.638
 17  9  6  2 11  0.0000000  0  9G01G10G12G13G15G17G19G24G28
 128571356.731 6 100185482.91144                  24466318.477    24466316.367
 127220945.427 6  99133200.44745                  24209340.535    24209339.101
 115740528.600 9  90187416.81446                  22024685.836    22024686.753
 124679098.100 7  97152552.89444                  23725639.534    23725640.573
 118040104.064 9  91979302.64046                  22462284.266    22462284.625
 115107451.246 9  89694118.17447                  21904212.118    21904213.842
 111078815.365 9  86554924.80447                  21137588.974    21137592.249
 107751331.677 9  83962085.68948                  20504395.378    20504394.156
 129062860.321 6 100568465.28244                  24559839.662    24559841.104
 17  9  6  2 11 30.0000000  0  9G01G10G12G13G15G17G19G24G28
 128599039.613 5 100207053.98044                  24471586.016    24471583.703
 127257410.531 7  99161614.80844                  24216279.787    24216278.215
 115649870.353 9  90116774.03546                  22007433.934    22007435.044
 124795138.036 8  97242973.60644                  23747721.416    23747722.167
 118127953.150 9  92047756.45046                  22479001.385    22479001.690
 115133406.790 9  89714343.27347                  21909151.302    21909153.125
 111047752.595 9  86530720.06347                  21131677.868    21131681.201
 107717445.177 9  83935680.62948                  20497947.016    20497945.776
 129155954.460 6 100641006.13544                  24577554.925    24577556.430
 17  9  6  2 12  0.0000000  0  9G01G10G12G13G15G17G19G24G28
 128627306.920 6 100229080.44045                  24476965.347    24476962.977
 127294391.824 7  99190431.41346                  24223316.608    24223315.896
 115559505.669 9  90046360.01746                  21990237.921    21990239.139
 124911325.819 7  97333509.53445                  23769831.520    23769831.949
 118216144.261 9  92116476.77546                  22495783.728    22495783.966
 115159907.530 9  89734993.21147                  21914194.128    21914196.060
 111017351.028 9  86507030.54947                  21125892.586    21125895.927
 107684004.045 9  83909622.59948                  20491583.340    20491582.187
 129249085.336 6 100713575.64943                  24595277.668    24595278.748
 17  9  6  2 12 30.0000000  0  9G01G10G12G13G15G17G19G24G28
 128656162.009 6 100251564.90244                  24482456.473    24482454.007
 127331891.735 6  99219652.09345                  24230452.414    24230451.832
 115469440.710 9  89976179.54646                  21973099.133    21973100.448
 125027662.961 7  97424161.85044                  23791969.657    23791970.136
 118304679.777 9  92185465.48446                  22512631.422    22512631.685
 115186956.382 9  89756070.24047                  21919341.255    21919343.268
 110987615.669 9  86483860.17047                  21120234.173    21120237.417
 107651013.902 9  83883916.00048                  20485305.465    20485304.437
 129342255.897 6 100786176.05344                  24613007.489    24613008.671
 17  9  6  2 13  0.0000000  0  9G01G10G12G13G15G17G19G24G28
 128685603.708 6 100274506.44745                  24488059.002    24488056.469
 127369908.498 6  99249275.54345                  24237686.877    24237686.021
 115379676.205 9  89906233.20046                  21956017.559    21956018.795
 125144146.914 7  97514928.58845                  23814135.394    23814136.295
 118393557.085 9  92254720.49846                  22529544.295    22529544.480
 115214552.613 9  89777573.79747                  21924592.757    21924594.691
 110958547.710 9  86461209.83648                  21114702.853    21114705.903
 107618475.029 9  83858561.04448                  20479113.488    20479112.561
 129435465.048 6 100858806.50543                  24630744.443    24630746.032
 17  9  6  2 13 30.0000000  0  9G01G10G12G13G15G17G19G24G28
 128715631.488 6 100297904.71744                  24493772.686    24493770.649
 127408440.522 6  99279300.49645                  24245019.514    24245018.243
 115290213.671 9  89836522.15446                  21938993.516    21938994.576
 125260775.492 8  97605807.97844                  23836329.138    23836329.934
 118482773.627 9  92324239.86946                  22546521.590    22546521.913
 115242694.948 9  89799502.89147                  21929948.097    21929949.982
 110930148.254 9  86439080.39748                  21109298.732    21109301.714
 107586389.674 9  83833559.47348                  20473007.872    20473006.957
 129528712.165 6 100931466.63343                  24648488.445    24648490.363
 17  9  6  2 14  0.0000000  0  9G01G10G12G13G15G17G19G24G28
 128746244.285 6 100321758.81145                  24499597.963    24499596.011
 127447486.147 6  99309725.65544                  24252449.572    24252448.313
 115201054.577 9  89767047.56946                  21922027.037    21922028.158
 125377546.052 7  97696798.01844                  23858549.973    23858550.585
 118572326.783 9  92394021.54346                  22563563.003    22563563.342
 115271382.593 9  89821856.90347                  21935407.289    21935409.000
 110902418.762 9  86417473.00848                  21104022.056    21104024.973
 107554758.845 9  83808912.07548                  20466988.718    20466987.863
 129621995.909 6 101004155.20244                  24666239.987    24666241.651
 17  9  6  2 14 30.0000000  0  9G01G10G12G13G15G17G19G24G28
 128777439.780 6 100346067.02144                  24505534.237    24505532.340
 127487042.218 7  99340548.57745                  24259976.944    24259975.625
 115112199.564 9  89697809.91446                  21905118.319    21905119.724
 125494454.547 7  97787895.56744                  23880796.986    23880797.478
 118662212.900 9  92464062.65246                  22580667.849    22580668.155
 115300612.722 9  89844633.62447                  21940969.590    21940971.183
 110875358.559 9  86396387.15448                  21098872.469    21098875.593
 107523582.674 9  83784618.95948                  20461056.038    20461055.200
 129715313.839 6 101076870.43143                  24683997.728    24683999.528
 17  9  6  2 15  0.0000000  0  9G01G10G12G13G15G17G19G24G28
 128809218.169 6 100370829.36044                  24511581.423    24511579.632
 127527108.102 7  99371768.72344                  24267601.199    24267600.331
 115023650.761 9  89628810.87746                  21888268.095    21888269.489
 125611500.229 7  97879099.97944                  23903070.035    23903070.370
 118752430.862 9  92534362.35546                  22597835.640    22597836.086
 115330385.626 9  89867833.28947                  21946635.253    21946636.713
 110848970.134 9  86375824.75948                  21093850.937    21093854.019
 107492863.306 9  83760681.79248                  20455210.238    20455209.498
 129808666.672 6 101149612.88844                  24701761.759    24701763.845
 17  9  6  2 15 30.0000000  0  9G01G10G12G13G15G17G19G24G28
 128841577.505 6 100396044.40444                  24517739.507    24517737.563
 127567681.222 7  99403384.16245                  24275322.157    24275321.389
 114935409.034 9  89560051.11346                  21871476.167    21871477.581
 125728679.665 7  97970408.63744                  23925368.686    23925368.917
 118842977.045 9  92604917.80146                  22615065.886    22615066.439
 115360699.362 9  89891454.38747                  21952403.744    21952405.113
 110823253.362 9  86355785.73748                  21088957.127    21088960.286
 107462600.850 9  83737100.66048                  20449451.454    20449450.733
 129902052.536 6 101222381.07044                  24719531.851    24719534.518
 17  9  6  2 16  0.0000000  0  9G01G10G12G13G15G17G19G24G28
 128874515.467 6 100421710.32044                  24524007.447    24524005.687
 127608758.354 7  99435392.28445                  24283139.005    24283137.941
 114847474.093 9  89491530.39546                  21854742.814    21854744.243
 125845988.857 7  98061818.39144                  23947691.890    23947692.203
 118933847.667 9  92675726.06046                  22632358.047    22632358.580
 115391551.390 9  89915494.93247                  21958274.812    21958275.993
 110798207.835 9  86336269.75948                  21084191.225    21084194.257
 107432795.364 9  83713875.61548                  20443779.699    20443778.890
 129995468.640 6 101295172.81244                  24737309.078    24737311.000
 17  9  6  2 16 30.0000000  0  9G01G10G12G13G15G17G19G24G28
 128908033.312 6 100447828.11445                  24530385.351    24530384.105
 127650340.016 7  99467793.59544                  24291051.736    24291050.733
 114759849.927 9  89423251.86246                  21838068.553    21838069.848
 125963427.813 7  98153329.29744                  23970039.559    23970040.004
 119025042.379 9  92746786.85446                  22649711.788    22649712.332
 115422942.993 9  89939955.92847                  21964248.598    21964249.628
 110773837.056 9  86317279.55948                  21079553.670    21079556.688
 107403450.671 9  83691009.62348                  20438195.582    20438194.768
 130088916.529 6 101367989.27443                  24755091.953    24755093.619
 17  9  6  2 17  0.0000000  0  9G01G10G12G13G15G17G19G24G28
 128942128.871 6 100474396.05042                  24536874.024    24536871.745
 127692423.259 7  99500585.71545                  24299059.518    24299058.926
 114672537.098 9  89355215.91346                  21821453.472    21821454.739
 126080992.840 7  98244938.39744                  23992411.719    23992411.921
 119116557.333 9  92818097.20946                  22667126.421    22667127.079
 115454871.499 9  89964835.28947                  21970324.277    21970325.385
 110750140.575 9  86298814.77547                  21075044.351    21075047.409
 107374566.459 9  83668502.44348                  20432699.099    20432698.244
 130182394.191 6 101440829.02144                  24772879.713    24772881.964
 17  9  6  2 17 30.0000000  0  9G01G10G12G13G15G17G19G24G28
 128976801.820 6 100501413.94344                  24543471.245    24543469.859
 127735007.043 7  99533767.90445                  24307163.214    24307162.398
 114585537.205 9  89287423.82147                  21804897.966    21804899.121
 126198682.450 7  98336644.57444                  24014807.464    24014807.604
 119208391.588 9  92889656.33746                  22684602.181    22684602.551
 115487337.115 9  89990133.17647                  21976502.211    21976503.416
 110727120.065 9  86280876.72248                  21070663.657    21070666.752
 107346145.093 9  83646355.93448                  20427290.726    20427289.749
 130275901.287 6 101513691.62643                  24790673.086    24790675.689
 17  9  6  2 18  0.0000000  0  9G01G10G12G13G15G17G19G24G28
 129012048.128 6 100528878.57244                  24550178.418    24550177.461
 127778086.715 6  99567336.46645                  24315360.939    24315360.098
 114498849.133 9  89219874.69946                  21788401.589    21788402.929
 126316491.225 7  98428443.64244                  24037225.536    24037225.928
 119300539.241 9  92961459.69946                  22702137.135    22702137.708
 115520335.468 9  90015846.17147                  21982781.686    21982782.830
 110704773.818 9  86263464.07748                  21066411.288    21066414.396
 107318184.473 9  83624568.43748                  20421969.943    20421968.990
 130369433.994 6 101586574.24243                  24808471.757    24808474.758
 17  9  6  2 18 30.0000000  0  9G01G10G12G13G15G17G19G24G28
 129047871.626 5 100556792.92843                  24556995.626    24556993.797
 127821665.089 7  99601293.62345                  24323653.509    24323652.579
 114412479.503 9  89152573.71046                  21771966.046    21771967.275
 126434421.720 7  98520337.52844                  24059666.847    24059667.272
 119393002.638 9  93033509.08546                  22719732.270    22719732.883
 115553870.279 9  90041977.19847                  21989163.287    21989164.298
 110683107.164 9  86246580.97548                  21062288.140    21062291.423
 107290690.350 9  83603144.44748                  20416737.933    20416736.955
 130462996.334 6 101659479.89044                  24826276.679    24826279.228
 17  9  6  2 19  0.0000000  0  9G01G10G12G13G15G17G19G24G28
 129084267.574 6 100585153.39543                  24563921.480    24563919.383
 127865736.871 7  99635635.25945                  24332039.912    24332039.285
 114326425.984 9  89085519.05246                  21755590.576    21755591.913
 126552467.481 7  98612321.25844                  24082130.122    24082130.830
 119485775.842 9  93105799.87246                  22737386.579    22737387.091
 115587936.774 9  90068522.51147                  21995645.947    21995647.020
 110662117.369 9  86230225.31348                  21058293.874    21058297.263
 107263661.328 9  83582082.88148                  20411594.521    20411593.461
 130556583.959 6 101732405.25543                  24844086.218    24844088.028
 17  9  6  2 19 30.0000000  0  9G01G10G12G13G15G17G19G24G28
 129121235.248 6 100613959.41844                  24570956.114    24570954.347
 127910300.537 7  99670360.20944                  24340520.221    24340519.350
 114240690.380 9  89018712.12246                  21739275.473    21739276.803
 126670626.791 7  98704393.43244                  24104614.957    24104615.674
 119578856.711 9  93178330.42346                  22755099.188    22755099.827
 115622534.210 9  90095481.55647                  22002229.537    22002230.729
 110641806.027 9  86214398.28948                  21054428.708    21054432.173
 107237098.793 9  83561384.79848                  20406539.853    20406538.755
 130650196.127 7 101805349.77243                  24861900.411    24861901.796
 17  9  6  2 20  0.0000000  0  7G10G12G13G15G17G19G24
 127955349.335 7  99705463.14645                  24349092.755    24349091.886
 114155268.626 9  88952149.74946                  21723020.308    21723021.536
 126788893.016 7  98796548.93644                  24127120.471    24127121.042
 119672237.833 9  93251094.92246                  22772869.144    22772869.723
 115657656.450 9  90122849.53447                  22008913.039    22008914.328
 110622168.724 9  86199096.51248                  21050691.911    21050695.330
 107210997.979 9  83541046.50448                  20401573.057    20401571.894
 17  9  6  2 20 30.0000000  0  7G10G12G13G15G17G19G24
 128000889.958 6  99740949.34845                  24357758.726    24357757.795
 114070171.544 9  88885840.36746                  21706826.803    21706828.136
 126907271.471 7  98888791.85844                  24149647.264    24149647.790
 119765925.658 9  93324098.40346                  22790697.371    22790697.971
 115693310.547 9  90150631.94547                  22015697.871    22015699.232
 110603215.098 9  86184327.46348                  21047085.204    21047088.581
 107185370.287 9  83521076.87848                  20396696.255    20396695.082
 17  9  6  2 21  0.0000000  0  7G10G12G13G15G17G19G24
 128046915.270 6  99776813.21245                  24366516.994    24366515.912
 113985395.766 9  88819781.35646                  21690694.426    21690695.841
 127025755.137 7  98981116.83944                  24172193.731    24172194.672
 119859912.230 9  93397334.69446                  22808582.573    22808583.104
 115729490.551 9  90178824.15747                  22022582.575    22022584.123
 110584940.627 9  86170087.62248                  21043607.674    21043611.035
 107160210.619 9  83501471.93848                  20391908.467    20391907.369
 17  9  6  2 21 30.0000000  0  7G10G12G13G15G17G19G24
 128093425.280 6  99813054.80444                  24375368.149    24375366.235
 113900944.016 9  88753974.81146                  21674623.720    21674625.279
 127144343.433 7  99073523.29544                  24194760.095    24194760.894
 119954196.873 9  93470803.23646                  22826524.410    22826524.893
 115766197.005 9  90207426.58447                  22029567.618    22029569.194
 110567347.733 9  86156378.89548                  21040259.779    21040263.165
 107135522.579 9  83482234.50348                  20387210.520    20387209.403
 17  9  6  2 22  0.0000000  0  7G10G12G13G15G17G19G24
 128140417.164 6  99849671.83145                  24384310.431    24384308.392
 113816816.621 9  88688421.03646                  21658614.750    21658616.214
 127263032.940 7  99166008.60344                  24217346.020    24217346.774
 120048776.182 9  93544501.38546                  22844522.205    22844522.701
 115803427.841 9  90236437.63147                  22036652.381    22036654.064
 110550436.529 9  86143201.35048                  21037041.619    21037045.035
 107111306.422 9  83463364.77548                  20382602.431    20382601.239
 17  9  6  2 22 30.0000000  0  7G10G12G13G15G17G19G24
 128187884.693 7  99886659.53845                  24393342.993    24393341.180
 113733011.113 9  88623118.06247                  21642667.142    21642668.603
 127381817.068 7  99258567.70045                  24239950.057    24239950.678
 120143643.910 9  93618424.26746                  22862574.974    22862575.400
 115841177.554 9  90265852.98447                  22043835.835    22043837.685
 110534203.307 9  86130552.09648                  21033952.466    21033955.907
 107087558.969 9  83444860.26448                  20378083.448    20378082.255
 17  9  6  2 23  0.0000000  0  7G10G12G13G15G17G19G24
 128235831.238 7  99924020.46545                  24402466.410    24402465.491
 113649534.409 9  88558071.31846                  21626782.002    21626783.538
 127500698.728 7  99351202.72643                  24262572.668    24262572.945
 120238802.749 9  93692573.98346                  22880683.084    22880683.471
 115879449.830 9  90295675.52847                  22051118.744    22051120.687
 110518653.907 9  86118435.69948                  21030993.465    21030996.931
 107064286.451 9  83426725.84448                  20373654.830    20373653.630
 17  9  6  2 23 30.0000000  0  7G10G12G13G15G17G19G24
 128284251.837 7  99961750.81645                  24411681.119    24411679.755
 113566384.858 9  88493279.48747                  21610959.122    21610960.753
 127619673.126 7  99443910.05643                  24285212.538    24285212.955
 120334246.935 8  93766946.04946                  22898845.533    22898845.771
 115918240.769 9  90325902.23847                  22058500.247    22058502.375
 110503786.051 9  86106850.35948                  21028164.191    21028167.637
 107041487.149 9  83408960.15148                  20369316.289    20369315.103
 17  9  6  2 24  0.0000000  0  7G10G12G13G15G17G19G24
 128333144.916 7  99999849.32044                  24420984.942    24420984.037
 113483564.558 9  88428744.20447                  21595198.908    21595200.520
 127738737.810 7  99536687.74444                  24307869.675    24307870.246
 120429974.672 8  93841539.07046                  22917061.948    22917062.094
 115957549.285 9  90356532.24447                  22065980.468    22065982.507
 110489600.901 9  86095796.99848                  21025464.886    21025468.263
 107019162.956 9  83391564.67848                  20365068.122    20365066.998
 17  9  6  2 24 30.0000000  0  7G10G12G13G15G17G19G24
 128382509.389 7 100038315.15745                  24430378.646    24430377.790
 113401075.805 9  88364467.28146                  21579501.758    21579503.384
 127857891.522 7  99629534.81643                  24330543.833    24330544.587
 120525984.302 8  93916351.73446                  22935332.019    22935332.084
 115997375.371 9  90387565.54247                  22073559.010    22073561.159
 110476099.533 9  86085276.46148                  21022895.739    21022899.014
 106997315.472 9  83374540.67248                  20360910.655    20360909.548
 17  9  6  2 25  0.0000000  0  7G10G12G13G15G17G19G24
 128432340.932 6 100077144.93845                  24439861.161    24439860.548
 113318917.043 9  88300447.49547                  21563867.541    21563869.027
 127977129.665 7  99722447.60444                  24353234.351    24353234.767
 120622271.046 8  93991380.36446                  22953654.586    22953654.877
 116037714.930 9  90418998.97347                  22081235.443    22081237.486
 110463280.525 9  86075287.62648                  21020456.425    21020459.650
 106975943.974 9  83357887.55848                  20356843.833    20356842.693
 17  9  6  2 25 30.0000000  0  7G10G12G13G15G17G19G24
 128482641.041 7 100116339.81444                  24449432.790    24449432.001
 113237093.483 9  88236688.89447                  21548297.177    21548298.438
 128096453.382 7  99815427.14244                  24375941.011    24375941.239
 120718835.895 9  94066625.68046                  22972030.375    22972030.581
 116078570.469 9  90450834.45546                  22089009.978    22089011.942
 110451147.809 9  86065833.56947                  21018147.709    21018150.787
 106955053.048 9  83341608.91348                  20352868.482    20352867.312
 17  9  6  2 26  0.0000000  0  8G10G12G13G15G17G19G24G32
 128533404.390 7 100155895.66444                  24459092.892    24459092.035
 113155604.190 9  88173190.77047                  21532790.142    21532791.446
 128215857.122 7  99908469.01344                  24398662.527    24398663.086
 120815672.983 8  94142083.13546                  22990457.940    22990458.048
 116119937.165 9  90483068.23246                  22096881.750    22096883.709
 110439698.899 9  86056912.33648                  21015969.045    21015972.126
 106934640.457 9  83325703.00048                  20348984.020    20348982.960
 130748143.05816 101881659.71953                  24880545.237    24880546.400
 17  9  6  2 26 30.0000000  0  8G10G12G13G15G17G19G24G32
 128584621.206 6 100195804.85744                  24468839.240    24468838.425
 113074442.394 9  88109947.82947                  21517345.470    21517346.822
 128335330.769 7 100001565.33644                  24421397.821    24421398.260
 120912772.433 8  94217745.03746                  23008935.235    23008935.620
 116161805.845 9  90515693.18047                  22104849.065    22104851.006
 110428926.214 9  86048518.04948                  21013919.112    21013922.152
 106914699.156 9  83310164.33048                  20345189.356    20345188.275
 130651908.041 7 101806671.35344                  24862233.335    24862235.037
 17  9  6  2 27  0.0000000  0  8G10G12G13G15G17G19G24G32
 128636306.071 6 100236078.79544                  24478674.447    24478673.811
 112993625.948 9  88046974.00747                  21501966.696    21501967.892
 128454888.804 7 100094727.47143                  24444148.424    24444149.255
 121010148.203 8  94293622.24446                  23027465.269    23027465.577
 116204191.822 9  90548721.21247                  22112914.809    22112916.748
 110418846.940 9  86040664.07948                  21012001.047    21012004.148
 106895247.759 9  83295007.40048                  20341487.902    20341486.779
 130555959.298 6 101731906.09244                  24843976.016    24843976.664
 17  9  6  2 27 30.0000000  0  8G10G12G13G15G17G19G24G32
 128688446.885 7 100276707.99044                  24488596.771    24488595.593
 112913145.582 9  87984262.04547                  21486651.841    21486653.011
 128574518.509 6 100187945.40144                  24466913.653    24466913.942
 121107787.992 9  94369705.19746                  23046045.542    23046045.924
 116247083.780 9  90582143.51447                  22121077.045    22121078.804
 110409451.338 9  86033342.83248                  21010213.185    21010216.207
 106876276.915 9  83280224.92348                  20337877.801    20337876.760
 130460289.606 6 101657358.29444                  24825770.385    24825771.166
 17  9  6  2 28  0.0000000  0  8G10G12G13G15G17G19G24G32
 128741044.016 7 100317692.76344                  24498605.587    24498604.357
 112833006.864 9  87921816.31847                  21471401.742    21471403.091
 128694220.491 7 100281219.69143                  24489691.683    24489692.311
 121205691.537 9  94445993.66046                  23064675.788    23064676.343
 116290482.943 9  90615961.04747                  22129335.601    22129337.348
 110400742.333 9  86026556.59548                  21008555.901    21008559.004
 106857790.365 9  83265819.81948                  20334359.912    20334358.898
 130364904.321 7 101583032.11744                  24807619.128    24807619.712
 17  9  6  2 28 30.0000000  0  8G10G12G13G15G17G19G24G32
 128794091.450 6 100359028.41044                  24508699.854    24508699.044
 112753206.376 9  87859634.14947                  21456216.206    21456217.592
 128813988.397 7 100374545.31144                  24512483.165    24512483.332
 121303852.720 8  94522482.88446                  23083355.268    23083355.867
 116334383.794 9  90650169.49547                  22137689.699    22137691.331
 110392716.277 9  86020302.53948                  21007028.536    21007031.744
 106839785.587 9  83251790.12448                  20330933.740    20330932.691
 130269802.419 6 101508926.75243                  24789522.001    24789522.410
 17  9  6  2 29  0.0000000  0  8G10G12G13G15G17G19G24G32
 128847588.460 6 100400714.36244                  24518880.432    24518879.162
 112673747.073 9  87797717.84247                  21441095.620    21441097.008
 128933821.361 7 100467921.65644                  24535286.302    24535287.013
 121402270.159 9  94599171.78146                  23102083.640    23102084.118
 116378786.549 9  90684769.03947                  22146139.269    22146140.895
 110385375.013 9  86014582.08748                  21005631.527    21005634.861
 106822264.270 9  83238137.15348                  20327599.553    20327598.495
 130174988.190 6 101435045.53144                  24771479.681    24771479.582
 17  9  6  2 29 30.0000000  0  8G10G12G13G15G17G19G24G32
 128901534.658 6 100442750.39744                  24529145.221    24529144.782
 112594631.348 9  87736069.26147                  21426040.299    21426041.720
 129053718.899 7 100561348.31844                  24558102.108    24558102.703
 121500943.397 9  94676060.03046                  23120860.429    23120861.101
 116423691.370 9  90719759.81546                  22154684.466    22154685.962
 110378720.699 9  86009396.91048                  21004365.201    21004368.682
 106805229.441 9  83224863.26648                  20324357.919    20324356.857
 130080466.271 6 101361392.09345                  24753492.775    24753492.505
 17  9  6  2 30  0.0000000  0  8G10G12G13G15G17G19G24G32
 128955926.564 6 100485133.66045                  24539496.105    24539495.159
 112515860.101 9  87674689.09247                  21411050.620    21411052.062
 129173677.142 6 100654822.26943                  24580929.653    24580929.771
 121599868.460 8  94753144.47746                  23139685.208    23139685.866
 116469095.333 9  90755139.52447                  22163324.559    22163325.966
 110372752.120 9  86004746.07748                  21003229.389    21003232.970
 106788681.042 9  83211968.40948                  20321208.886    20321207.819
 129986238.076 6 101287967.54344                  24735561.811    24735561.083
 17  9  6  2 30 30.0000000  0  8G10G12G13G15G17G19G24G32
 129010761.248 6 100527861.98345                  24549930.851    24549929.757
 112437434.535 9  87613578.27247                  21396126.551    21396128.167
 129293693.345 6 100748341.38343                  24603767.938    24603768.048
 121699042.143 8  94830422.66746                  23158557.530    23158558.021
 116514996.268 9  90790906.47646                  22172059.291    22172060.540
 110367468.892 9  86000629.27948                  21002223.995    21002227.605
 106772619.257 9  83199452.73448                  20318152.484    20318151.375
 129892305.905 7 101214773.65444                  24717686.512    24717686.451
 17  9  6  2 31  0.0000000  0  8G10G12G13G15G17G19G24G32
 129066034.999 6 100570932.43245                  24560449.293    24560448.026
 112359353.649 9  87552736.03847                  21381268.202    21381269.845
 129413763.419 6 100841902.47144                  24626616.297    24626616.659
 121798460.500 8  94907891.51946                  23177476.031    23177476.687
 116561391.210 9  90827058.38246                  22180887.841    22180889.133
 110362869.497 9  85997045.33848                  21001348.722    21001352.411
 106757043.817 9  83187316.03048                  20315188.585    20315187.479
 129798671.031 6 101141811.40645                  24699868.959    24699868.588
 17  9  6  2 31 30.0000000  0  8G10G12G13G15G17G19G24G32
 129121746.911 6 100614344.32944                  24571050.838    24571049.745
 112281620.093 9  87492164.46447                  21366476.089    21366477.653
 129533886.564 6 100935504.94344                  24649474.702    24649475.476
 121898121.835 8  94985549.68446                  23196440.826    23196441.496
 116608280.346 9  90863595.36746                  22189810.676    22189811.791
 110358955.664 9  85993995.61048                  21000603.924    21000607.598
 106741956.566 9  83175559.73248                  20312317.523    20312316.507
 129705337.495 6 101069083.98544                  24682108.027    24682107.735
 17  9  6  2 32  0.0000000  0  8G10G12G13G15G17G19G24G32
 129177896.576 6 100658097.31444                  24581735.932    24581734.505
 112204237.317 9  87431866.21846                  21351750.703    21351752.260
 129654062.172 6 101029148.22944                  24672343.471    24672344.158
 121998025.864 8  95063396.96245                  23215452.156    23215452.660
 116655663.363 9  90900517.18346                  22198827.383    22198828.414
 110355729.092 9  85991481.39847                  20999989.905    20999993.566
 106727360.432 9  83164186.12448                  20309539.941    20309538.949
 129612310.062 6 100996595.07544                  24664405.464    24664405.031
 17  9  6  2 32 30.0000000  0  9G10G12G13G15G17G19G24G25G32
 129234478.441 6 100702187.05145                  24592503.210    24592501.646
 112127203.196 9  87371839.67447                  21337091.600    21337093.101
 129774284.960 6 101122828.28944                  24695221.083    24695221.538
 122098166.995 8  95141429.00945                  23234508.287    23234508.770
 116703535.572 9  90937820.21346                  22207937.118    22207938.281
 110353186.553 9  85989500.20448                  20999506.077    20999509.689
 106713253.854 9  83153193.98848                  20306855.511    20306854.532
 129704209.01916 101068215.42855                  24681892.521    24681890.270
 129519588.225 6 100924344.29544                  24646760.781    24646760.729
 17  9  6  2 33  0.0000000  0  9G10G12G13G15G17G19G24G25G32
 129291488.489 6 100746610.41744                  24603351.758    24603350.363
 112050517.199 9  87312084.37447                  21322498.715    21322500.205
 129894550.569 6 101216541.79242                  24718107.198    24718107.465
 122198540.893 8  95219642.42845                  23253608.711    23253609.300
 116751893.712 9  90975501.87146                  22217139.387    22217140.494
 110351326.535 9  85988050.84548                  20999152.137    20999155.651
 106699635.177 9  83142582.03148                  20304263.948    20304262.960
 129595717.937 6 100983676.94144                  24661247.611    24661245.609
 129427173.122 6 100852332.53744                  24629175.224    24629174.809
 17  9  6  2 33 30.0000000  0  9G10G12G13G15G17G19G24G25G32
 129348929.512 7 100791369.67344                  24614282.716    24614281.192
 111974186.536 9  87252605.96847                  21307973.549    21307974.903
 130014861.897 6 101310290.86443                  24741001.069    24741001.973
 122299149.713 8  95298038.88946                  23272754.050    23272754.492
 116800741.235 9  91013564.87646                  22226434.677    22226435.809
 110350154.071 9  85987137.24248                  20998929.033    20998932.479
 106686510.710 9  83132355.17648                  20301766.430    20301765.475
 129487329.026 6 100899218.11844                  24640621.941    24640619.296
 129335072.656 6 100780565.93944                  24611648.943    24611648.477
 17  9  6  2 34  0.0000000  0  8G10G12G15G17G19G24G25G32
 129406792.617 6 100836457.78045                  24625293.471    24625292.223
 111898205.254 9  87193399.82047                  21293514.857    21293516.075
 122399984.598 8  95376611.51246                  23291942.363    23291942.614
 116850070.169 9  91052002.98546                  22235821.755    22235822.829
 110349662.566 9  85986754.25448                  20998835.511    20998838.930
 106673875.005 9  83122509.17148                  20299361.882    20299360.999
 129379037.058 6 100814834.73045                  24620013.779    24620012.157
 129243282.995 6 100709041.53144                  24594182.105    24594181.527
 17  9  6  2 34 30.0000000  0  8G10G12G15G17G19G24G25G32
 129465084.022 6 100881879.59944                  24636385.645    24636384.405
 111822582.930 9  87134473.36747                  21279124.491    21279125.577
 122501051.243 8  95455364.73445                  23311174.758    23311175.070
 116899887.144 9  91090821.42446                  22245301.554    22245302.743
 110349860.377 9  85986908.39548                  20998873.261    20998876.513
 106661737.339 9  83113051.24748                  20297052.137    20297051.254
 129270851.894 6 100730534.63644                  24599427.254    24599424.985
 129151815.530 6 100637768.20144                  24576776.697    24576775.669
 17  9  6  2 35  0.0000000  0  8G10G12G15G17G19G24G25G32
 129523795.450 6 100927628.79644                  24647557.532    24647556.961
 111747315.962 9  87075823.81647                  21264801.588    21264802.750
 122602341.647 8  95534292.30045                  23330449.813    23330449.880
 116950184.748 9  91130014.34446                  22254872.697    22254873.994
 110350741.722 9  85987595.16648                  20999041.054    20999044.222
 106650091.890 9  83103976.87948                  20294836.145    20294835.216
 129162769.071 6 100646314.31144                  24578859.867    24578857.513
 129060667.160 6 100566743.48844                  24559431.668    24559430.841
 17  9  6  2 35 30.0000000  0  7G12G15G17G19G24G25G32
 111672401.764 9  87017449.14547                  21250545.783    21250547.058
 122703849.271 8  95613389.14145                  23349765.779    23349766.210
 117000958.011 9  91169577.92346                  22264534.542    22264535.842
 110352303.118 9  85988811.84748                  20999338.202    20999341.333
 106638937.678 9  83095285.28348                  20292713.576    20292712.617
 129054786.510 6 100562172.05845                  24558311.218    24558309.091
 128969837.180 7 100495966.89144                  24542147.376    24542146.584
 17  9  6  2 36  0.0000000  0  7G12G15G17G19G24G25G32
 111597848.689 9  86959355.86447                  21236358.741    21236360.020
 122805579.272 8  95692659.28146                  23369124.586    23369124.964
 117052212.589 9  91209516.54946                  22274287.917    22274289.246
 110354551.670 9  85990563.97248                  20999766.158    20999769.147
 106628282.083 9  83086982.21948                  20290685.837    20290684.859
 128946912.980 6 100478114.80744                  24537783.647    24537781.453
 128879335.869 7 100425446.35244                  24524925.441    24524925.031
 17  9  6  2 36 30.0000000  0  7G12G15G17G19G24G25G32
 111523655.713 9  86901543.17647                  21222240.178    21222241.643
 122907527.197 8  95772099.19046                  23388524.783    23388524.908
 117103944.506 9  91249827.13746                  22284132.083    22284133.455
 110357484.846 9  85992849.56548                  21000324.262    21000327.312
 106618123.470 9  83079066.41948                  20288752.703    20288751.733
 128839147.646 6 100394141.82744                  24517276.336    24517274.511
 128789163.761 6 100355182.35644                  24507766.088    24507765.998
 17  9  6  2 37  0.0000000  0  7G12G15G17G19G24G25G32
 111449823.378 9  86844011.52647                  21208190.438    21208191.769
 123009689.543 8  95851706.21246                  23407965.524    23407965.857
 117156151.587 9  91290507.96246                  22294066.748    22294068.079
 110361102.067 9  85995668.18148                  21001012.513    21001015.664
 106608462.817 9  83071538.63548                  20286914.387    20286913.396
 128731491.245 6 100310253.78745                  24496789.898    24496787.744
 128699322.981 6 100285176.59245                  24490670.156    24490669.212
 17  9  6  2 37 30.0000000  0  8G06G12G15G17G19G24G25G32
 129065397.81517 100570455.36555                  24560331.400    24560328.873
 111376349.655 9  86786759.28347                  21194208.680    21194210.191
 123112059.560 8  95931475.03846                  23427446.047    23427446.134
 117208827.905 9  91331554.44246                  22304090.756    22304092.085
 110365398.904 9  85999016.37548                  21001830.191    21001833.325
 106599296.343 9  83064395.92948                  20285170.095    20285169.056
 128623940.986 6 100226448.42645                  24476323.918    24476321.789
 128609812.245 7 100215427.95844                  24473636.568    24473636.016
 17  9  6  2 38  0.0000000  0  8G06G12G15G17G19G24G25G32
 128970480.655 7 100496493.95945                  24542269.040    24542265.995
 111303245.039 9  86729794.66847                  21180297.278    21180298.863
 123214643.942 8  96011410.89845                  23446967.322    23446967.299
 117261981.251 9  91372972.63046                  22314205.455    22314206.907
 110370384.607 9  86002901.33948                  21002778.992    21002782.073
 106590634.254 9  83057646.24448                  20283521.700    20283520.727
 128516507.709 6 100142734.18345                  24455879.755    24455877.732
 128520643.799 7 100145946.01344                  24456668.153    24456667.884
 17  9  6  2 38 30.0000000  0  8G06G12G15G17G19G24G25G32
 128875727.828 7 100422660.61745                  24524238.001    24524234.756
 111230500.388 9  86673110.55147                  21166454.438    21166455.938
 123317430.641 8  96091504.43645                  23466526.807    23466527.070
 117315600.245 9  91414753.64946                  22324408.776    22324410.257
 110376049.162 9  86007315.28048                  21003856.869    21003859.948
 106582467.891 9  83051282.84248                  20281967.692    20281966.738
 128409183.309 7 100059104.84344                  24435456.745    24435454.637
 128431810.826 7 100076725.52745                  24439763.964    24439763.359
 17  9  6  2 39  0.0000000  0  8G06G12G15G17G19G24G25G32
 128781143.163 7 100348958.28845                  24506239.498    24506235.947
 111158118.440 9  86616709.05847                  21152680.564    21152682.136
 123420417.918 8  96171754.26246                  23486124.557    23486124.856
 117369683.904 9  91456896.74946                  22334700.513    22334702.130
 110382392.937 9  86012258.48448                  21005064.019    21005067.081
 106574798.359 9  83045306.58748                  20280508.291    20280507.250
 128301969.747 6  99975561.79645                  24415054.581    24415052.747
 128343316.734 7 100007769.08744                  24422924.105    24422923.493
 17  9  6  2 39 30.0000000  0  8G06G12G15G17G19G24G25G32
 128686733.941 7 100275392.70445                  24488274.183    24488270.195
 111086104.004 9  86560593.92147                  21138976.567    21138978.244
 123523607.229 8  96252161.48645                  23505761.036    23505761.147
 117424234.127 9  91499403.41646                  22345081.106    22345082.787
 110389419.707 9  86017733.88948                  21006401.115    21006404.189
 106567630.943 9  83039721.58648                  20279144.468    20279143.336
 128194872.390 7  99892109.36645                  24394674.851    24394672.685
 128255168.303 6  99939081.99644                  24406149.794    24406149.488
 17  9  6  2 40  0.0000000  0  8G06G12G15G17G19G24G25G32
 128592500.949 7 100201964.41246                  24470342.023    24470338.360
 111014456.388 9  86504764.63547                  21125342.447    21125344.091
 123626993.481 8  96332722.19445                  23525434.502    23525434.872
 117479247.100 9  91542270.66046                  22355549.915    22355551.438
 110397126.577 9  86023739.25248                  21007867.686    21007870.752
 106560963.669 9  83034526.31048                  20277875.683    20277874.579
 128087890.064 6  99808746.52644                  24374316.497    24374314.542
 128167365.786 7  99870664.44744                  24389441.911    24389441.456
 17  9  6  2 40 30.0000000  0  8G06G12G15G17G19G24G25G32
 128498444.157 7 100128673.42145                  24452443.691    24452440.097
 110943173.243 9  86449219.34747                  21111777.705    21111779.413
 123730570.661 8  96413431.67545                  23545144.612    23545144.972
 117534717.668 9  91585494.47246                  22366105.596    22366107.237
 110405509.711 9  86030271.56248                  21009462.951    21009466.003
 106554794.054 9  83029718.82248                  20276701.660    20276700.492
 127981020.892 7  99725471.91745                  24353979.674    24353978.003
 128079908.709 7  99802516.05044                  24372799.644    24372799.243
 17  9  6  2 41  0.0000000  0  8G06G12G15G17G19G24G25G32
 128404574.003 7 100055527.87746                  24434580.459    24434577.123
 110872262.541 9  86393964.27447                  21098283.913    21098285.573
 123834343.538 8  96494293.64545                  23564891.946    23564892.342
 117590651.353 9  91629079.15246                  22376749.313    22376751.105
 110414576.181 9  86037336.34648                  21011188.182    21011191.301
 106549130.033 9  83025305.30148                  20275623.948    20275622.635
 127874273.435 6  99642292.09145                  24333665.959    24333664.542
 127992806.972 6  99734644.57844                  24356224.898    24356224.381
 17  9  6  2 41 30.0000000  0  8G06G12G15G17G19G24G25G32
 128310888.514 7  99982526.22745                  24416752.649    24416749.676
 110801720.110 9  86338996.14347                  21084860.142    21084861.812
 123938304.413 8  96575302.10645                  23584675.101    23584675.450
 117647040.935 9  91673019.07446                  22387480.166    22387481.680
 110424320.040 9  86044928.97147                  21013042.226    21013045.567
 106543967.342 9  83021282.42948                  20274641.560    20274640.220
 127767643.743 6  99559204.02744                  24313375.136    24313373.669
 127906058.046 7  99667048.00644                  24339717.185    24339716.520
 17  9  6  2 42  0.0000000  0  8G06G12G15G17G19G24G25G32
 128217392.177 7  99909671.97445                  24398961.186    24398958.016
 110731549.227 9  86284317.54147                  21071507.115    21071508.761
 124042451.184 8  96656455.40945                  23604493.620    23604493.916
 117703885.663 9  91717313.65946                  22398297.295    22398298.919
 110434741.943 9  86053049.93248                  21015025.387    21015028.837
 106539307.456 9  83017651.35348                  20273754.776    20273753.461
 127661134.333 6  99476209.72245                  24293106.880    24293105.299
 127819665.844 7  99599729.38144                  24323277.091    24323276.363
 17  9  6  2 42 30.0000000  0  8G06G12G15G17G19G24G25G32
 128124088.297 7  99836967.63145                  24381205.746    24381203.003
 110661750.040 9  86229928.56547                  21058224.809    21058226.399
 124146782.177 8  96737752.25445                  23624347.048    23624347.379
 117761183.977 9  91761961.69246                  22409200.885    22409202.533
 110445841.569 9  86061698.99248                  21017137.522    21017141.085
 106535151.173 9  83014412.69548                  20272963.893    20272962.547
 127554746.834 6  99393310.38944                  24272862.215    24272860.503
 127733633.259 7  99532690.99645                  24306905.427    24306904.484
 17  9  6  2 43  0.0000000  0  8G06G12G15G17G19G24G25G32
 128030980.125 7  99764415.85645                  24363487.556    24363484.827
 110592324.731 9  86175830.93047                  21045013.668    21045015.173
 124251294.518 8  96819190.43345                  23644235.251    23644235.469
 117818933.907 9  91806961.61846                  22420190.204    22420191.944
 110457618.279 9  86070875.64047                  21019378.469    21019382.172
 106531499.385 9  83011567.13848                  20272269.002    20272267.658
 127448482.424 7  99310506.98344                  24252640.869    24252638.850
 127647962.998 7  99465934.94344                  24290603.024    24290601.922
 17  9  6  2 43 30.0000000  0  8G06G12G15G17G19G24G25G32
 127938070.126 7  99692018.46245                  24345807.701    24345804.607
 110523273.378 9  86122024.69547                  21031873.582    21031875.173
 124355984.841 8  96900767.29945                  23664157.162    23664157.524
 117877132.850 9  91852311.45146                  22431265.081    22431266.727
 110470070.645 9  86080578.79147                  21021748.070    21021751.850
 106528351.725 9  83009114.42048                  20271670.038    20271668.690
 127342341.702 6  99227799.93244                  24232443.306    24232441.108
 127562656.964 7  99399462.71944                  24274370.011    24274368.884
 17  9  6  2 44  0.0000000  0  8G06G12G15G17G19G24G25G32
 127845361.610 7  99619778.09645                  24328165.736    24328162.727
 110454597.258 9  86068510.84847                  21018804.893    21018806.470
 124460850.561 8  96982480.82145                  23684112.584    23684112.759
 117935779.015 9  91898009.74846                  22442424.965    22442426.721
 110483198.175 9  86090808.03348                  21024246.239    21024249.972
 106525709.204 9  83007055.30648                  20271167.189    20271165.806
 127236326.030 7  99145190.33944                  24212269.276    24212267.027
 127477717.938 7  99333276.45244                  24258206.801    24258205.614
 17  9  6  2 44 30.0000000  0  8G06G12G15G17G19G24G25G32
 127752857.206 7  99547696.76145                  24310562.768    24310559.944
 110386296.620 9  86015289.58647                  21005807.671    21005809.238
 124565888.264 8  97064328.36545                  23704100.407    23704100.794
 117994869.880 9  91944054.57246                  22453669.681    22453671.309
 110496999.387 9  86101562.22648                  21026872.607    21026876.249
 106523571.732 9  83005389.74448                  20270760.396    20270759.052
 127130436.234 7  99062678.82644                  24192119.053    24192116.845
 127393148.015 7  99267377.81845                  24242113.934    24242112.558
 17  9  6  2 45  0.0000000  0  8G06G12G15G17G19G24G25G32
 127660559.526 7  99475776.49446                  24292999.097    24292996.369
 110318372.562 9  85962361.78047                  20992882.260    20992883.654
 124671095.113 8  97146307.71245                  23724120.616    23724121.033
 118054402.836 9  91990443.87946                  22464998.354    22464999.977
 110511473.190 9  86112840.51348                  21029626.941    21029630.480
 106521938.956 9  83004117.45549                  20270449.667    20270448.351
 127024672.920 6  98980265.89745                  24171993.432    24171990.773
 127308949.230 7  99201768.34345                  24226091.063    24226090.496
 17  9  6  2 45 30.0000000  0  8G06G12G15G17G19G24G25G32
 127568475.481 7  99404022.72145                  24275476.047    24275473.453
 110250829.089 9  85909730.54347                  20980029.113    20980030.475
 124776471.864 8  97228419.44045                  23744173.184    23744173.544
 118114380.010 9  92037179.31846                  22476411.786    22476413.206
 110526622.665 9  86124645.30147                  21032509.921    21032513.359
 106520815.540 9  83003242.06248                  20270235.986    20270234.572
 126919041.120 6  98897955.43044                  24151892.024    24151889.424
 127225127.961 7  99136453.07545                  24210140.415    24210140.089
 17  9  6  2 46  0.0000000  0  8G06G12G15G17G19G24G25G32
 127476603.903 7  99332434.47745                  24257993.032    24257990.992
 110183663.064 9  85857393.39547                  20967247.786    20967249.104
 124882011.714 8  97310658.26445                  23764256.829    23764256.884
 118174795.073 9  92084255.98246                  22487908.236    22487909.780
 110542442.481 9  86136972.43048                  21035520.408    21035523.746
 106520197.416 9  83002760.40348                  20270118.360    20270116.935
 126813537.749 6  98815745.04345                  24131815.003    24131812.432
 127141682.455 7  99071430.58945                  24194261.314    24194260.943
 17  9  6  2 46 30.0000000  0  8G06G12G15G17G19G24G25G32
 127384951.540 7  99261017.09845                  24240552.362    24240549.973
 110116879.084 9  85805353.95947                  20954539.293    20954540.523
 124987715.092 8  97393024.52846                  23784371.642    23784371.758
 118235649.388 9  92131674.92646                  22499488.449    22499489.954
 110558935.402 9  86149824.06148                  21038658.991    21038662.227
 106520088.638 9  83002675.64248                  20270097.592    20270096.259
 126708167.792 6  98733638.58845                  24111763.952    24111761.362
 127058618.951 7  99006705.80945                  24178455.106    24178454.425
 17  9  6  2 47  0.0000000  0  8G06G12G15G17G19G24G25G32
 127293519.359 7  99189771.23345                  24223153.416    24223150.823
 110050476.897 9  85753612.02147                  20941903.444    20941904.589
 125093577.933 8  97475515.04845                  23804516.547    23804516.822
 118296938.783 9  92179432.87846                  22511151.734    22511152.956
 110576098.286 9  86163197.73848                  21041924.903    21041928.197
 106520487.682 9  83002986.58448                  20270173.497    20270172.195
 126602930.029 6  98651635.18245                  24091737.722    24091735.032
 126975937.763 7  98942278.87544                  24162721.299    24162720.676
 17  9  6  2 47 30.0000000  0  8G06G12G15G17G19G24G25G32
 127202311.571 7  99118700.26046                  24205797.335    24205794.165
 109984457.709 9  85702168.52347                  20929340.172    20929341.562
 125199598.131 8  97558128.17245                  23824691.409    23824691.914
 118358662.250 9  92227529.08246                  22522897.212    22522898.499
 110593931.512 9  86177093.76248                  21045318.432    21045321.718
 106521395.554 9  83003694.01848                  20270346.168    20270344.963
 126497827.026 7  98569736.78545                  24071736.946    24071734.691
 126893642.576 7  98878152.78845                  24147061.069    24147059.965
 17  9  6  2 48  0.0000000  0  8G06G12G15G17G19G24G25G32
 127111327.767 7  99047803.79545                  24188483.686    24188480.493
 109918819.183 9  85651021.63847                  20916849.596    20916850.995
 125305769.594 8  97640859.16846                  23844895.224    23844895.809
 118420814.283 9  92275959.21446                  22534724.344    22534725.679
 110612430.329 9  86191508.42048                  21048838.593    21048841.830
 106522809.721 9  83004795.96348                  20270615.259    20270614.082
 126392856.385 7  98487941.46844                  24051761.534    24051759.662
 126811732.480 7  98814326.74544                  24131473.944    24131472.891
 17  9  6  2 48 30.0000000  0  8G06G12G15G17G19G24G25G32
 127020575.890 7  98977088.07445                  24171214.109    24171210.944
 109853567.115 9  85600175.86647                  20904432.516    20904434.017
 125412093.951 8  97723709.31545                  23865128.176    23865128.679
 118483397.596 8  92324725.43646                  22546633.493    22546634.918
 110631598.856 9  86206444.94447                  21052486.236    21052489.307
 106524734.928 9  83006296.12748                  20270981.614    20270980.425
 126288024.101 7  98406254.04045                  24031812.576    24031810.593
 126730214.755 7  98750806.43145                  24115961.574    24115960.678
 17  9  6  2 49  0.0000000  0  8G06G12G15G17G19G24G25G32
 126930055.608 7  98906552.82745                  24153988.811    24153985.406
 109788699.090 9  85549629.36447                  20892088.537    20892090.084
 125518565.862 8  97806674.43945                  23885389.060    23885389.830
 118546406.723 9  92373823.44346                  22558623.689    22558625.239
 110651432.285 9  86221899.55948                  21056260.388    21056263.341
 106527168.530 9  83008192.43548                  20271444.720    20271443.506
 126183328.000 7  98324672.70045                  24011889.587    24011887.736
 126649088.495 7  98687591.16944                  24100523.479    24100522.734
 17  9  6  2 49 30.0000000  0  8G06G12G15G17G19G24G25G32
 126839772.108 7  98836202.08545                  24136808.586    24136804.991
 109724217.412 9  85499383.90147                  20879818.013    20879819.718
 125625184.190 8  97889753.64946                  23905677.844    23905678.582
 118609841.403 8  92423253.05246                  22570695.126    22570696.457
 110671931.875 9  86237873.27248                  21060161.279    21060164.200
 106530112.868 9  83010486.72648                  20272004.963    20272003.789
 126078771.390 7  98243200.02945                  23991993.205    23991991.322
 126568358.276 7  98624684.52445                  24085160.843    24085159.939
 17  9  6  2 50  0.0000000  0  8G06G12G15G17G19G24G25G32
 126749727.047 7  98766037.09446                  24119673.113    24119670.247
 109660122.729 9  85449440.01947                  20867621.184    20867622.851
 125731944.902 8  97972943.79145                  23925993.879    23925994.404
 118673698.374 9  92473011.71146                  22582846.821    22582847.976
 110693095.072 9  86254364.07247                  21064188.592    21064191.392
 106533566.723 9  83013178.04548                  20272662.112    20272661.030
 125974353.914 7  98161835.82745                  23972123.473    23972121.260
 126488025.175 7  98562087.31744                  24069874.347    24069873.135
 17  9  6  2 50 30.0000000  0  8G06G12G15G17G19G24G25G32
 126659924.239 7  98696060.90645                  24102584.564    24102581.401
 109596416.377 9  85399798.72047                  20855498.195    20855499.942
 125838845.828 8  98056243.22045                  23946336.481    23946336.944
 118737976.010 9  92523098.16046                  22595078.359    22595079.650
 110714921.421 9  86271371.61547                  21068342.107    21068344.862
 106537531.009 9  83016267.09648                  20273416.444    20273415.397
 125870077.565 7  98080581.53845                  23952280.147    23952278.166
 126408092.392 7  98499802.00745                  24054663.478    24054662.290
 17  9  6  2 51  0.0000000  0  8G06G12G15G17G19G24G25G32
 126570367.506 7  98626276.44446                  24085542.570    24085539.511
 109533099.567 9  85350460.96247                  20843449.396    20843451.129
 125945885.279 8  98139650.58645                  23966705.641    23966705.976
 118802673.190 9  92573511.54846                  22607389.755    22607391.186
 110737410.401 9  86288895.50548                  21072621.528    21072624.408
 106542006.929 9  83019754.82248                  20274268.235    20274267.130
 125765944.306 7  97999438.76445                  23932464.268    23932462.277
 126328563.166 7  98437831.19445                  24039529.565    24039528.197
 17  9  6  2 51 30.0000000  0  8G06G12G15G17G19G24G25G32
 126481059.266 7  98556685.60345                  24068547.440    24068544.843
 109470172.485 9  85301426.88847                  20831474.805    20831476.456
 126053059.681 8  98223163.10645                  23987100.068    23987100.420
 118867787.111 9  92624249.65046                  22619780.464    22619782.054
 110760560.276 9  86306934.36548                  21077026.673    21077029.749
 106546994.384 9  83023641.15148                  20275217.294    20275216.235
 125661954.573 7  97918407.85045                  23912675.607    23912673.440
 126249439.285 7  98376176.21745                  24024472.569    24024471.572
 17  9  6  2 52  0.0000000  0  8G06G12G15G17G19G24G25G32
 126392001.716 7  98487290.15145                  24051600.324    24051597.791
 109407635.835 9  85252697.04647                  20819574.395    20819576.092
 126160365.375 8  98306777.91845                  24007519.690    24007520.014
 118933314.508 9  92675309.94846                  22632249.811    22632251.503
 110784369.263 9  86325486.82047                  21081557.303    21081560.454
 106552492.253 9  83027925.20248                  20276263.442    20276262.474
 125558108.791 8  97837489.08045                  23892914.402    23892912.203
 126170722.419 7  98314838.37044                  24009493.041    24009492.464
 17  9  6  2 52 30.0000000  0  8G06G12G15G17G19G24G25G32
 126303199.829 7  98418093.89146                  24034701.867    24034699.294
 109345492.130 9  85204273.38947                  20807748.813    20807750.467
 126267801.542 8  98390494.40445                  24027964.149    24027964.491
 118999255.259 9  92726692.34946                  22644797.980    22644799.724
 110808837.869 9  86344553.26247                  21086213.546    21086216.746
 106558503.073 9  83032608.95848                  20277407.247    20277406.295
 125454409.958 7  97756684.83245                  23873181.088    23873178.727
 126092416.802 7  98253821.02844                  23994591.960    23994591.317
 17  9  6  2 53  0.0000000  0  8G06G12G15G17G19G24G25G32
 126214654.708 8  98349097.70845                  24017852.417    24017849.854
 109283740.058 9  85156154.90447                  20795997.826    20795999.432
 126375363.497 8  98474308.91745                  24048432.631    24048433.034
 119065605.136 9  92778393.52646                  22657423.943    22657425.668
 110833962.733 9  86364131.07848                  21090994.641    21090997.956
 106565024.919 9  83037690.91548                  20278648.283    20278647.367
 125350857.317 7  97675994.49245                  23853475.835    23853473.422
 126014522.918 7  98193124.49045                  23979769.337    23979768.646
 17  9  6  2 53 30.0000000  0  8G06G12G15G17G19G24G25G32
 126126370.558 8  98280304.86145                  24001052.554    24001050.165
 109222381.771 9  85108343.26947                  20784321.767    20784323.338
 126483049.647 8  98558220.18945                  24068924.300    24068924.861
 119132363.264 9  92830412.83546                  22670127.635    22670129.365
 110859743.703 9  86384220.15147                  21095900.674    21095903.947
 106572059.113 9  83043172.09948                  20279986.829    20279985.930
 125247453.169 7  97595419.86645                  23833798.483    23833796.481
 125937044.402 7  98132751.63945                  23965025.838    23965025.141
 17  9  6  2 54  0.0000000  0  8G06G12G15G17G19G24G25G32
 126038349.170 7  98211716.79145                  23984302.601    23984300.109
 109161417.108 9  85060838.34347                  20772720.518    20772722.155
 126590855.899 8  98642225.06845                  24089439.203    24089439.786
 119199526.253 9  92882747.61746                  22682908.392    22682910.033
 110886178.189 9  86404818.43847                  21100931.001    21100934.197
 106579604.214 9  83049051.39648                  20281422.651    20281421.732
 125144197.441 7  97514960.89345                  23814149.732    23814147.509
 125859982.461 7  98072703.34644                  23950361.241    23950361.009
 17  9  6  2 54 30.0000000  0  8G06G12G15G17G19G24G25G32
 125950598.065 7  98143339.31945                  23967604.094    23967601.570
 109100851.313 9  85013644.21647                  20761195.207    20761196.891
 126698784.348 8  98726325.13845                  24109977.513    24109977.839
 119267096.229 9  92935399.52446                  22695766.617    22695768.160
 110913269.356 9  86425928.43347                  21106086.278    21106089.499
 106587665.830 9  83055333.16848                  20282956.785    20282955.813
 125041095.753 7  97434621.93245                  23794529.710    23794527.863
 125783343.725 7  98012984.85245                  23935777.551    23935777.130
 17  9  6  2 55  0.0000000  0  8G06G12G15G17G19G24G25G32
 125863116.552 8  98075171.93545                  23950957.113    23950954.374
 109040680.845 9  84966758.15847                  20749745.206    20749746.814
 126806828.327 8  98810515.24745                  24130537.628    24130537.889
 119335067.060 9  92988363.80346                  22708701.096    22708702.668
 110941012.108 9  86447546.16647                  21111365.488    21111368.852
 106596239.691 9  83062014.10048                  20284588.352    20284587.347
 124938145.641 7  97354401.09345                  23774939.054    23774937.185
 125707127.185 7  97953595.34444                  23921274.286    23921273.712
 17  9  6  2 55 30.0000000  0  8G06G12G15G17G19G24G25G32
 125775908.364 7  98007217.50146                  23934362.023    23934359.160
 108980907.696 9  84920181.69047                  20738370.742    20738372.362
 126914985.797 8  98894793.79345                  24151119.431    24151119.571
 119403437.518 9  93041639.47546                  22721711.406    22721713.140
 110969405.931 9  86469671.21547                  21116768.689    21116771.958
 106605326.638 9  83069094.83148                  20286317.547    20286316.547
 124835348.821 7  97274299.69645                  23755377.428    23755375.732
 125631335.708 7  97894537.05845                  23906851.619    23906850.960
 17  9  6  2 56  0.0000000  0  8G06G12G15G17G19G24G25G32
 125688976.433 8  97939478.35545                  23917819.096    23917816.331
 108921532.837 9  84873915.57647                  20727072.000    20727073.761
 127023253.896 8  98979158.51945                  24171722.075    24171722.169
 119472205.074 9  93095224.56946                  22734797.556    22734799.206
 110998449.086 9  86492302.24147                  21122295.249    21122298.680
 106614927.551 9  83076576.05848                  20288144.585    20288143.576
 124732706.430 8  97194318.63945                  23735845.459    23735843.493
 125555971.678 7  97835811.86345                  23892510.334    23892509.585
 17  9  6  2 56 30.0000000  0  8G06G12G15G17G19G24G25G32
 125602324.196 7  97871957.13546                  23901329.533    23901326.971
 108862557.265 9  84827960.60247                  20715849.349    20715851.077
 127131630.256 8  99063607.64644                  24192345.193    24192345.463
 119541367.978 9  93149117.71946                  22747958.913    22747960.416
 111028140.506 9  86515438.41247                  21127945.315    21127948.764
 106625041.540 9  83084457.08149                  20290069.295    20290068.180
 124630220.018 8  97114459.15445                  23716342.774    23716340.858
 125481037.801 7  97777421.80045                  23878250.609    23878250.214
 17  9  6  2 57  0.0000000  0  8G06G12G15G17G19G24G25G32
 125515953.593 8  97804655.36045                  23884894.096    23884891.001
 108803980.746 9  84782316.58147                  20704702.712    20704704.354
 127240111.127 8  99148138.18245                  24212988.879    24212988.799
 119610922.908 9  93203316.34446                  22761194.702    22761196.190
 111058477.649 9  86539077.73947                  21133718.410    21133721.694
 106635668.654 9  83092737.94048                  20292091.542    20292090.470
 124527889.718 7  97034721.25745                  23696870.224    23696868.073
 125406535.368 7  97719367.94445                  23864073.074    23864072.997
 17  9  6  2 57 30.0000000  0  8G06G12G15G17G19G24G25G32
 125429869.960 7  97737577.25946                  23868512.984    23868509.694
 108745806.347 9  84736985.90547                  20693632.391    20693634.128
 127348696.000 8  99232749.75145                  24233651.865    24233651.754
 119680870.034 9  93257820.58846                  22774505.248    22774506.727
 111089461.561 9  86563221.03747                  21139614.488    21139617.713
 106646811.576 9  83101420.73548                  20294211.977    20294210.892
 124425718.962 7  96955107.71145                  23677427.432    23677425.286
 125332469.138 7  97661654.00944                  23849978.917    23849978.728
 17  9  6  2 58  0.0000000  0  8G06G12G15G17G19G24G25G32
 125344074.208 8  97670723.42746                  23852186.252    23852183.359
 108688032.561 9  84691967.37947                  20682638.407    20682640.124
 127457380.087 8  99317438.64445                  24254333.552    24254333.648
 119751204.842 9  93312626.91746                  22787889.590    22787890.948
 111121088.333 9  86587865.26947                  21145632.907    21145636.034
 106658467.270 9  83110503.09048                  20296430.027    20296428.915
 124323706.780 7  96875617.74445                  23658015.064    23658012.888
 125258839.209 7  97604280.04045                  23835967.669    23835967.353
 17  9  6  2 58 30.0000000  0  8G06G12G15G17G19G24G25G32
 125258571.690 8  97604098.09446                  23835915.597    23835912.622
 108630663.057 9  84647263.88347                  20671721.365    20671723.082
 127566162.947 8  99402204.54745                  24275034.022    24275034.475
 119821927.363 9  93367735.36546                  22801347.567    22801348.943
 111153358.516 9  86613010.86747                  21151773.696    21151776.733
 106670638.768 9  83119987.36448                  20298746.221    20298745.086
 124221856.739 8  96796254.08545                  23638633.464    23638631.577
 125185650.307 7  97547249.72445                  23822040.589    23822039.962
 17  9  6  2 59  0.0000000  0  8G06G12G15G17G19G24G25G32
 125173362.051 7  97537701.00046                  23819700.863    23819697.987
 108573694.756 9  84602873.01147                  20660880.477    20660882.363
 127675038.717 8  99487042.79545                  24295752.488    24295752.839
 119893032.021 9  93423141.58546                  22814878.225    22814879.852
 111186267.775 9  86638654.44347                  21158036.142    21158039.150
 106683322.333 9  83129870.65648                  20301159.860    20301158.724
 124120166.557 8  96717015.01445                  23619282.573    23619280.555
 125112901.392 7  97490562.27044                  23808197.170    23808196.238
 17  9  6  2 59 30.0000000  0  8G06G12G15G17G19G24G25G32
 125088452.708 7  97471537.89046                  23803543.308    23803540.032
 108517132.628 9  84558798.63047                  20650116.972    20650118.877
 127784008.989 8  99571954.66545                  24316489.139    24316489.115
 119964521.103 9  93478847.33346                  22828482.183    22828483.665
 111219819.017 8  86664798.26048                  21164420.653    21164423.639
 106696522.865 9  83140156.78249                  20303671.845    20303670.695
 124018641.888 7  96637904.89645                  23599962.860    23599960.993
 125040599.205 7  97434222.89044                  23794438.228    23794437.756
 17  9  6  3  0  0.0000000  0  8G06G12G15G17G19G24G25G32
 125003840.936 8  97405606.69845                  23787442.535    23787438.882
 108460972.202 9  84515037.28247                  20639430.133    20639431.909
 127893065.479 8  99656933.74745                  24337241.907    24337241.922
 120036386.674 9  93534846.46446                  22842157.621    22842159.264
 111254004.749 9  86691436.48547                  21170926.010    21170929.009
 106710234.594 9  83150841.23649                  20306281.205    20306279.939
 123917278.160 8  96558920.22245                  23580674.241    23580672.057
 124968740.328 7  97378228.95244                  23780763.967    23780763.341
 17  9  6  3  0 30.0000000  0  8G06G12G15G17G19G24G25G32
 124919535.362 7  97339914.01445                  23771399.230    23771396.273
 108405219.897 9  84471593.93247                  20628820.816    20628822.598
 128002210.543 8  99741981.86945                  24358011.359    24358011.722
 120108632.033 9  93591141.54946                  22855905.586    22855907.248
 111288828.869 9  86718572.15847                  21177552.795    21177555.919
 106724462.880 9  83161928.20449                  20308988.778    20308987.504
 123816082.074 8  96480066.15345                  23561417.073    23561415.166
 124897332.641 7  97322586.61345                  23767175.608    23767174.720
 17  9  6  3  1  0.0000000  0  8G06G12G15G17G19G24G25G32
 124835538.346 8  97274461.81446                  23755414.669    23755412.089
 108349875.867 9  84428468.72447                  20618289.093    20618290.956
 128111441.476 8  99827096.87944                  24378797.352    24378797.582
 120181254.314 8  93647730.31046                  22869725.169    22869726.523
 111324288.732 9  86746203.21647                  21184300.612    21184303.820
 106739207.282 9  83173417.34449                  20311794.620    20311793.306
 123715054.260 7  96401343.21346                  23542192.356    23542190.117
 124826377.824 7  97267297.14645                  23753673.241    23753672.455
 17  9  6  3  1 30.0000000  0  8G06G12G15G17G19G24G25G32
 124751849.485 8  97209249.73146                  23739489.594    23739486.913
 108294937.395 9  84385659.54147                  20607834.600    20607836.494
 128220751.800 8  99912273.73445                  24399598.433    24399598.431
 120254247.745 8  93704608.29146                  22883615.361    22883616.681
 111360379.397 9  86774325.80548                  21191168.520    21191171.705
 106754464.191 9  83185305.83649                  20314697.949    20314696.605
 123614192.443 8  96322749.62245                  23522998.938    23522996.799
 124755874.751 7  97212359.65345                  23740257.188    23740256.262
 17  9  6  3  2  0.0000000  0  8G06G12G15G17G19G24G25G32
 124668473.315 8  97144281.28046                  23723623.222    23723621.211
 108240406.466 9  84343167.91547                  20597457.703    20597459.597
 128330140.524 8  99997511.69744                  24420414.536    24420414.651
 120327611.297 9  93761774.68146                  22897575.924    22897577.372
 111397100.961 9  86802939.99847                  21198156.406    21198159.592
 106770235.075 9  83197594.83249                  20317699.055    20317697.698
 123513499.327 8  96244287.47146                  23503837.458    23503835.613
 124685827.204 7  97157777.18546                  23726927.707    23726926.484
 17  9  6  3  2 30.0000000  0  8G06G12G15G17G19G24G25G32
 124585414.483 8  97079560.12346                  23707817.571    23707815.689
 108186285.005 9  84300995.36147                  20587158.719    20587160.614
 128439606.396 8 100082809.80245                  24441245.189    24441245.320
 120401344.843 9  93819229.38046                  22911606.803    22911608.441
 111434453.276 8  86832045.69747                  21205264.322    21205267.549
 106786522.249 9  83210286.13349                  20320798.469    20320797.068
 123412977.802 8  96165959.01246                  23484708.810    23484707.235
 124616239.159 7  97103552.71846                  23713685.530    23713684.201
 17  9  6  3  3  0.0000000  0  8G06G12G15G17G19G24G25G32
 124502675.000 8  97015087.79745                  23692072.663    23692071.008
 108132574.394 9  84259142.94047                  20576937.893    20576939.866
 128549146.092 8 100168165.39545                  24462089.759    24462089.912
 120475444.946 8  93876969.70746                  22925707.718    22925709.424
 111472433.638 9  86861640.77047                  21212491.825    21212495.013
 106803324.031 9  83223378.43449                  20323995.743    20323994.347
 123312627.964 8  96087764.36246                  23465612.702    23465611.290
 124547111.880 7  97049687.31745                  23700531.103    23700529.431
 17  9  6  3  3 30.0000000  0  8G06G12G15G17G19G24G25G32
 124420257.803 8  96950866.61045                  23676389.224    23676387.709
 108079274.370 9  84217610.46947                  20566795.338    20566797.245
 128658756.624 8 100253576.18144                  24482947.999    24482948.067
 120549909.282 8  93934993.83946                  22939877.766    22939879.355
 111511040.334 9  86891723.90747                  21219838.519    21219841.789
 106820640.646 9  83236871.88949                  20327290.891    20327289.595
 123212451.061 8  96009704.44346                  23446549.734    23446548.200
 124478447.582 7  96996182.66246                  23687464.422    23687463.104
 17  9  6  3  4  0.0000000  0  8G06G12G15G17G19G24G25G32
 124338166.679 8  96886899.52945                  23660767.947    23660766.145
 108026386.393 9  84176399.06847                  20556731.108    20556733.009
 128768436.500 8 100339041.01644                  24503819.423    24503819.352
 120624736.338 9  93993300.61245                  22954117.096    22954118.601
 111550272.304 9  86922294.26347                  21227304.165    21227307.332
 106838472.511 9  83250766.85648                  20330684.161    20330682.922
 123112449.031 8  95931780.78545                  23427520.072    23427518.488
 124410249.276 7  96943041.12145                  23674487.089    23674485.409
 17  9  6  3  4 30.0000000  0  8G06G12G15G17G19G24G25G32
 124256403.084 8  96823187.63346                  23645208.798    23645207.014
 107973909.389 9  84135507.90247                  20546745.076    20546746.997
 128878181.238 8 100424556.41744                  24524702.951    24524703.052
 120699922.362 9  94051887.10845                  22968424.196    22968425.895
 111590126.319 9  86953349.33747                  21234888.124    21234891.298
 106856817.663 9  83265061.76748                  20334175.162    20334173.912
 123012621.576 8  95853993.17846                  23408523.506    23408521.865
 124342517.729 8  96890263.29045                  23661598.058    23661596.780
 17  9  6  3  5  0.0000000  0  8G06G12G15G17G19G24G25G32
 124174970.227 8  96759733.47645                  23629712.660    23629710.595
 107921845.051 9  84094938.29747                  20536837.571    20536839.477
 128987988.368 8 100510120.39845                  24545598.740    24545598.630
 120775465.416 8  94110751.80045                  22982799.723    22982801.148
 111630600.396 9  86984887.56547                  21242590.104    21242593.235
 106875676.888 9  83279757.25948                  20337763.974    20337762.709
 122912970.077 8  95776342.71145                  23389560.652    23389558.679
 124275255.366 7  96837851.07645                  23648798.506    23648797.291
 17  9  6  3  5 30.0000000  0  8G06G12G15G17G19G24G25G32
 124093872.426 8  96696540.39246                  23614279.966    23614277.816
 107870194.770 9  84054691.33848                  20527008.822    20527010.708
 129097856.729 7 100595732.12145                  24566505.905    24566505.789
 120851364.413 8  94169893.88546                  22997242.710    22997244.627
 111671694.716 8  87016909.10747                  21250410.054    21250413.135
 106895051.039 9  83294853.99849                  20341450.729    20341449.488
 122813497.057 8  95698831.26945                  23370631.429    23370629.604
 124208465.734 7  96785807.17845                  23636088.656    23636087.843
 17  9  6  3  6  0.0000000  0  9G06G12G14G15G17G19G24G25G32
 124013112.826 8  96633610.81746                  23598912.066    23598909.745
 107818959.936 9  84014768.09147                  20517259.150    20517261.013
 131192367.80215 102227817.20555                  24965080.217    24965080.313
 129207783.836 8 100681389.57944                  24587424.354    24587424.079
 120927617.252 8  94229311.65245                  23011753.136    23011754.989
 111713407.272 9  87049412.38847                  21258347.709    21258350.723
 106914940.654 9  83310352.39549                  20345235.581    20345234.320
 122714203.960 8  95621460.03746                  23351736.637    23351734.750
 124142151.251 7  96734133.56145                  23623469.340    23623468.384
